CODIGO_MUNICIPIO_DV;CODIGO_MUNICIPIO;NOME_MUNICIPIO;UF;UF_Codigo;UF_Nome;Municipio_Capital;Regiao_Codigo;Regiao_Nome;LONGITUDE;LATITUDE
1200013;120001;Acrelândia;AC;12;Acre;Não;1;Norte;-67.052317;-10.073794
1200054;120005;Assis Brasil;AC;12;Acre;Não;1;Norte;-69.563459;-10.942866
1200104;120010;Brasiléia;AC;12;Acre;Não;1;Norte;-68.747943;-11.016411
1200138;120013;Bujari;AC;12;Acre;Não;1;Norte;-67.951859;-9.820020
1200179;120017;Capixaba;AC;12;Acre;Não;1;Norte;-67.673508;-10.569768
1200203;120020;Cruzeiro do Sul;AC;12;Acre;Não;1;Norte;-72.672531;-7.630690
1200252;120025;Epitaciolândia;AC;12;Acre;Não;1;Norte;-68.744868;-11.028240
1200302;120030;Feijó;AC;12;Acre;Não;1;Norte;-70.353984;-8.160248
1200328;120032;Jordão;AC;12;Acre;Não;1;Norte;-71.950875;-9.193358
1200336;120033;Mâncio Lima;AC;12;Acre;Não;1;Norte;-72.916501;-7.593223
1200344;120034;Manoel Urbano;AC;12;Acre;Não;1;Norte;-69.259945;-8.836318
1200351;120035;Marechal Thaumaturgo;AC;12;Acre;Não;1;Norte;-72.790266;-8.953591
1200385;120038;Plácido de Castro;AC;12;Acre;Não;1;Norte;-67.188260;-10.335133
1200393;120039;Porto Walter;AC;12;Acre;Não;1;Norte;-72.742334;-8.266666
1200401;120040;Rio Branco;AC;12;Acre;Sim;1;Norte;-67.810529;-9.978299
1200427;120042;Rodrigues Alves;AC;12;Acre;Não;1;Norte;-72.647855;-7.733602
1200435;120043;Santa Rosa do Purus;AC;12;Acre;Não;1;Norte;-70.486497;-9.443407
1200450;120045;Senador Guiomard;AC;12;Acre;Não;1;Norte;-67.743172;-10.148174
1200500;120050;Sena Madureira;AC;12;Acre;Não;1;Norte;-68.655684;-9.065340
1200609;120060;Tarauacá;AC;12;Acre;Não;1;Norte;-70.755501;-8.155669
1200708;120070;Xapuri;AC;12;Acre;Não;1;Norte;-68.506295;-10.652072
1200807;120080;Porto Acre;AC;12;Acre;Não;1;Norte;-67.540590;-9.600858
1300029;130002;Alvarães;AM;13;Amazonas;Não;1;Norte;-64.813535;-3.216584
1300060;130006;Amaturá;AM;13;Amazonas;Não;1;Norte;-68.209615;-3.366805
1300086;130008;Anamã;AM;13;Amazonas;Não;1;Norte;-61.405903;-3.576370
1300102;130010;Anori;AM;13;Amazonas;Não;1;Norte;-61.658955;-3.745386
1300144;130014;Apuí;AM;13;Amazonas;Não;1;Norte;-59.885666;-7.197870
1300201;130020;Atalaia do Norte;AM;13;Amazonas;Não;1;Norte;-70.187989;-4.366157
1300300;130030;Autazes;AM;13;Amazonas;Não;1;Norte;-59.133567;-3.578664
1300409;130040;Barcelos;AM;13;Amazonas;Não;1;Norte;-62.925670;-0.972801
1300508;130050;Barreirinha;AM;13;Amazonas;Não;1;Norte;-57.067750;-2.798150
1300607;130060;Benjamin Constant;AM;13;Amazonas;Não;1;Norte;-70.027348;-4.374989
1300631;130063;Beruri;AM;13;Amazonas;Não;1;Norte;-61.371571;-3.894513
1300680;130068;Boa Vista do Ramos;AM;13;Amazonas;Não;1;Norte;-57.587707;-2.971727
1300706;130070;Boca do Acre;AM;13;Amazonas;Não;1;Norte;-67.399578;-8.751243
1300805;130080;Borba;AM;13;Amazonas;Não;1;Norte;-59.594559;-4.390620
1300839;130083;Caapiranga;AM;13;Amazonas;Não;1;Norte;-61.211334;-3.330093
1300904;130090;Canutama;AM;13;Amazonas;Não;1;Norte;-64.394231;-6.529106
1301001;130100;Carauari;AM;13;Amazonas;Não;1;Norte;-66.896635;-4.881666
1301100;130110;Careiro;AM;13;Amazonas;Não;1;Norte;-60.363810;-3.822447
1301159;130115;Careiro da Várzea;AM;13;Amazonas;Não;1;Norte;-59.826314;-3.197397
1301209;130120;Coari;AM;13;Amazonas;Não;1;Norte;-63.142184;-4.084219
1301308;130130;Codajás;AM;13;Amazonas;Não;1;Norte;-62.063430;-3.843046
1301407;130140;Eirunepé;AM;13;Amazonas;Não;1;Norte;-69.866290;-6.667353
1301506;130150;Envira;AM;13;Amazonas;Não;1;Norte;-70.030413;-7.439818
1301605;130160;Fonte Boa;AM;13;Amazonas;Não;1;Norte;-66.096503;-2.512271
1301654;130165;Guajará;AM;13;Amazonas;Não;1;Norte;-72.582431;-7.547774
1301704;130170;Humaitá;AM;13;Amazonas;Não;1;Norte;-63.026698;-7.512225
1301803;130180;Ipixuna;AM;13;Amazonas;Não;1;Norte;-71.694418;-7.050980
1301852;130185;Iranduba;AM;13;Amazonas;Não;1;Norte;-60.193388;-3.281054
1301902;130190;Itacoatiara;AM;13;Amazonas;Não;1;Norte;-58.440175;-3.140379
1301951;130195;Itamarati;AM;13;Amazonas;Não;1;Norte;-68.247917;-6.437799
1302009;130200;Itapiranga;AM;13;Amazonas;Não;1;Norte;-58.034546;-2.741843
1302108;130210;Japurá;AM;13;Amazonas;Não;1;Norte;-66.996903;-1.880845
1302207;130220;Juruá;AM;13;Amazonas;Não;1;Norte;-66.063042;-3.474890
1302306;130230;Jutaí;AM;13;Amazonas;Não;1;Norte;-66.771328;-2.744646
1302405;130240;Lábrea;AM;13;Amazonas;Não;1;Norte;-64.794773;-7.261947
1302504;130250;Manacapuru;AM;13;Amazonas;Não;1;Norte;-60.620589;-3.298278
1302553;130255;Manaquiri;AM;13;Amazonas;Não;1;Norte;-60.458881;-3.429080
1302603;130260;Manaus;AM;13;Amazonas;Sim;1;Norte;-60.023335;-3.134691
1302702;130270;Manicoré;AM;13;Amazonas;Não;1;Norte;-61.299248;-5.813205
1302801;130280;Maraã;AM;13;Amazonas;Não;1;Norte;-65.574284;-1.866437
1302900;130290;Maués;AM;13;Amazonas;Não;1;Norte;-57.715034;-3.386428
1303007;130300;Nhamundá;AM;13;Amazonas;Não;1;Norte;-56.716770;-2.188984
1303106;130310;Nova Olinda do Norte;AM;13;Amazonas;Não;1;Norte;-59.093074;-3.887593
1303205;130320;Novo Airão;AM;13;Amazonas;Não;1;Norte;-60.948811;-2.623432
1303304;130330;Novo Aripuanã;AM;13;Amazonas;Não;1;Norte;-60.377046;-5.122669
1303403;130340;Parintins;AM;13;Amazonas;Não;1;Norte;-56.736292;-2.627053
1303502;130350;Pauini;AM;13;Amazonas;Não;1;Norte;-67.002097;-7.714044
1303536;130353;Presidente Figueiredo;AM;13;Amazonas;Não;1;Norte;-60.025647;-2.058429
1303569;130356;Rio Preto da Eva;AM;13;Amazonas;Não;1;Norte;-59.704738;-2.693302
1303601;130360;Santa Isabel do Rio Negro;AM;13;Amazonas;Não;1;Norte;-65.020023;-0.416695
1303700;130370;Santo Antônio do Içá;AM;13;Amazonas;Não;1;Norte;-67.946485;-3.107486
1303809;130380;São Gabriel da Cachoeira;AM;13;Amazonas;Não;1;Norte;-67.083643;-0.136463
1303908;130390;São Paulo de Olivença;AM;13;Amazonas;Não;1;Norte;-68.944853;-3.466510
1303957;130395;São Sebastião do Uatumã;AM;13;Amazonas;Não;1;Norte;-57.870346;-2.570153
1304005;130400;Silves;AM;13;Amazonas;Não;1;Norte;-58.214801;-2.836427
1304062;130406;Tabatinga;AM;13;Amazonas;Não;1;Norte;-69.946244;-4.231884
1304104;130410;Tapauá;AM;13;Amazonas;Não;1;Norte;-63.187095;-5.624224
1304203;130420;Tefé;AM;13;Amazonas;Não;1;Norte;-64.708420;-3.348372
1304237;130423;Tonantins;AM;13;Amazonas;Não;1;Norte;-67.776482;-2.861091
1304260;130426;Uarini;AM;13;Amazonas;Não;1;Norte;-65.155346;-2.983609
1304302;130430;Urucará;AM;13;Amazonas;Não;1;Norte;-57.759828;-2.536612
1304401;130440;Urucurituba;AM;13;Amazonas;Não;1;Norte;-58.159641;-3.134633
1600055;160005;Serra do Navio;AP;16;Amapá;Não;1;Norte;-52.003538;0.897841
1600105;160010;Amapá;AP;16;Amapá;Não;1;Norte;-50.793214;2.053921
1600154;160015;Pedra Branca do Amaparí;AP;16;Amapá;Não;1;Norte;-51.946594;0.776883
1600204;160020;Calçoene;AP;16;Amapá;Não;1;Norte;-50.944773;2.496559
1600212;160021;Cutias;AP;16;Amapá;Não;1;Norte;-50.801626;0.971078
1600238;160023;Ferreira Gomes;AP;16;Amapá;Não;1;Norte;-51.187429;0.853977
1600253;160025;Itaubal;AP;16;Amapá;Não;1;Norte;-50.700179;0.600653
1600279;160027;Laranjal do Jari;AP;16;Amapá;Não;1;Norte;-52.539021;-0.855665
1600303;160030;Macapá;AP;16;Amapá;Sim;1;Norte;-51.057405;0.038951
1600402;160040;Mazagão;AP;16;Amapá;Não;1;Norte;-51.286077;-0.124396
1600501;160050;Oiapoque;AP;16;Amapá;Não;1;Norte;-51.830553;3.851131
1600535;160053;Porto Grande;AP;16;Amapá;Não;1;Norte;-51.414449;0.712555
1600550;160055;Pracuúba;AP;16;Amapá;Não;1;Norte;-50.784254;1.742508
1600600;160060;Santana;AP;16;Amapá;Não;1;Norte;-51.172846;-0.038373
1600709;160070;Tartarugalzinho;AP;16;Amapá;Não;1;Norte;-50.912786;1.509848
1600808;160080;Vitória do Jari;AP;16;Amapá;Não;1;Norte;-52.419615;-0.918977
1500107;150010;Abaetetuba;PA;15;Pará;Não;1;Norte;-48.884404;-1.723470
1500131;150013;Abel Figueiredo;PA;15;Pará;Não;1;Norte;-48.396762;-4.951391
1500206;150020;Acará;PA;15;Pará;Não;1;Norte;-48.200456;-1.963437
1500305;150030;Afuá;PA;15;Pará;Não;1;Norte;-50.391428;-0.159172
1500347;150034;Água Azul do Norte;PA;15;Pará;Não;1;Norte;-50.485275;-6.804949
1500404;150040;Alenquer;PA;15;Pará;Não;1;Norte;-54.740862;-1.951398
1500503;150050;Almeirim;PA;15;Pará;Não;1;Norte;-52.576835;-1.527339
1500602;150060;Altamira;PA;15;Pará;Não;1;Norte;-52.214376;-3.205660
1500701;150070;Anajás;PA;15;Pará;Não;1;Norte;-49.945001;-0.984451
1500800;150080;Ananindeua;PA;15;Pará;Não;1;Norte;-48.372067;-1.368714
1500859;150085;Anapu;PA;15;Pará;Não;1;Norte;-51.201622;-3.476105
1500909;150090;Augusto Corrêa;PA;15;Pará;Não;1;Norte;-46.641646;-1.022921
1500958;150095;Aurora do Pará;PA;15;Pará;Não;1;Norte;-47.556175;-2.129376
1501006;150100;Aveiro;PA;15;Pará;Não;1;Norte;-55.330734;-3.605595
1501105;150110;Bagre;PA;15;Pará;Não;1;Norte;-50.221987;-1.889808
1501204;150120;Baião;PA;15;Pará;Não;1;Norte;-49.672753;-2.791962
1501253;150125;Bannach;PA;15;Pará;Não;1;Norte;-50.406047;-7.351072
1501303;150130;Barcarena;PA;15;Pará;Não;1;Norte;-48.627073;-1.505767
1501402;150140;Belém;PA;15;Pará;Sim;1;Norte;-48.487826;-1.459845
1501451;150145;Belterra;PA;15;Pará;Não;1;Norte;-54.942675;-2.649020
1501501;150150;Benevides;PA;15;Pará;Não;1;Norte;-48.241836;-1.361438
1501576;150157;Bom Jesus do Tocantins;PA;15;Pará;Não;1;Norte;-48.599040;-5.047363
1501600;150160;Bonito;PA;15;Pará;Não;1;Norte;-47.305892;-1.367474
1501709;150170;Bragança;PA;15;Pará;Não;1;Norte;-46.765754;-1.053524
1501725;150172;Brasil Novo;PA;15;Pará;Não;1;Norte;-52.543441;-3.297804
1501758;150175;Brejo Grande do Araguaia;PA;15;Pará;Não;1;Norte;-48.405760;-5.707296
1501782;150178;Breu Branco;PA;15;Pará;Não;1;Norte;-49.569880;-3.778135
1501808;150180;Breves;PA;15;Pará;Não;1;Norte;-50.480895;-1.690737
1501907;150190;Bujaru;PA;15;Pará;Não;1;Norte;-48.035875;-1.513991
1501956;150195;Cachoeira do Piriá;PA;15;Pará;Não;1;Norte;-46.547391;-1.752897
1502004;150200;Cachoeira do Arari;PA;15;Pará;Não;1;Norte;-48.960668;-1.008786
1502103;150210;Cametá;PA;15;Pará;Não;1;Norte;-49.497830;-2.246838
1502152;150215;Canaã dos Carajás;PA;15;Pará;Não;1;Norte;-49.848958;-6.532197
1502202;150220;Capanema;PA;15;Pará;Não;1;Norte;-47.175126;-1.192442
1502301;150230;Capitão Poço;PA;15;Pará;Não;1;Norte;-47.062825;-1.746187
1502400;150240;Castanhal;PA;15;Pará;Não;1;Norte;-47.926643;-1.295757
1502509;150250;Chaves;PA;15;Pará;Não;1;Norte;-49.989319;-0.162437
1502608;150260;Colares;PA;15;Pará;Não;1;Norte;-48.288728;-0.932091
1502707;150270;Conceição do Araguaia;PA;15;Pará;Não;1;Norte;-49.264501;-8.264864
1502756;150275;Concórdia do Pará;PA;15;Pará;Não;1;Norte;-47.949887;-1.984521
1502764;150276;Cumaru do Norte;PA;15;Pará;Não;1;Norte;-50.771578;-7.811107
1502772;150277;Curionópolis;PA;15;Pará;Não;1;Norte;-49.602214;-6.096820
1502806;150280;Curralinho;PA;15;Pará;Não;1;Norte;-49.791523;-1.809423
1502855;150285;Curuá;PA;15;Pará;Não;1;Norte;-55.119679;-1.889929
1502905;150290;Curuçá;PA;15;Pará;Não;1;Norte;-47.851265;-0.732496
1502939;150293;Dom Eliseu;PA;15;Pará;Não;1;Norte;-47.555915;-4.290778
1502954;150295;Eldorado dos Carajás;PA;15;Pará;Não;1;Norte;-49.373952;-6.103525
1503002;150300;Faro;PA;15;Pará;Não;1;Norte;-56.745753;-2.172975
1503044;150304;Floresta do Araguaia;PA;15;Pará;Não;1;Norte;-49.697578;-7.558701
1503077;150307;Garrafão do Norte;PA;15;Pará;Não;1;Norte;-47.045046;-1.931697
1503093;150309;Goianésia do Pará;PA;15;Pará;Não;1;Norte;-49.101045;-3.842468
1503101;150310;Gurupá;PA;15;Pará;Não;1;Norte;-51.643696;-1.404918
1503200;150320;Igarapé-Açu;PA;15;Pará;Não;1;Norte;-47.622375;-1.124322
1503309;150330;Igarapé-Miri;PA;15;Pará;Não;1;Norte;-48.962299;-1.983116
1503408;150340;Inhangapi;PA;15;Pará;Não;1;Norte;-47.913393;-1.426582
1503457;150345;Ipixuna do Pará;PA;15;Pará;Não;1;Norte;-47.499718;-2.557529
1503507;150350;Irituia;PA;15;Pará;Não;1;Norte;-47.440756;-1.771475
1503606;150360;Itaituba;PA;15;Pará;Não;1;Norte;-55.990049;-4.263729
1503705;150370;Itupiranga;PA;15;Pará;Não;1;Norte;-49.324426;-5.128837
1503754;150375;Jacareacanga;PA;15;Pará;Não;1;Norte;-57.766340;-6.223552
1503804;150380;Jacundá;PA;15;Pará;Não;1;Norte;-49.112782;-4.448405
1503903;150390;Juruti;PA;15;Pará;Não;1;Norte;-56.094998;-2.155253
1504000;150400;Limoeiro do Ajuru;PA;15;Pará;Não;1;Norte;-49.381534;-1.891949
1504059;150405;Mãe do Rio;PA;15;Pará;Não;1;Norte;-47.552290;-2.047707
1504109;150410;Magalhães Barata;PA;15;Pará;Não;1;Norte;-47.599182;-0.795850
1504208;150420;Marabá;PA;15;Pará;Não;1;Norte;-49.142025;-5.352606
1504307;150430;Maracanã;PA;15;Pará;Não;1;Norte;-47.455268;-0.762419
1504406;150440;Marapanim;PA;15;Pará;Não;1;Norte;-47.702549;-0.712151
1504422;150442;Marituba;PA;15;Pará;Não;1;Norte;-48.340536;-1.346417
1504455;150445;Medicilândia;PA;15;Pará;Não;1;Norte;-52.888345;-3.445417
1504505;150450;Melgaço;PA;15;Pará;Não;1;Norte;-50.717465;-1.803447
1504604;150460;Mocajuba;PA;15;Pará;Não;1;Norte;-49.509023;-2.582873
1504703;150470;Moju;PA;15;Pará;Não;1;Norte;-48.767199;-1.885889
1504752;150475;Mojuí dos Campos;PA;15;Pará;Não;1;Norte;-54.650000;-2.680000
1504802;150480;Monte Alegre;PA;15;Pará;Não;1;Norte;-54.073375;-2.003328
1504901;150490;Muaná;PA;15;Pará;Não;1;Norte;-49.216832;-1.530026
1504950;150495;Nova Esperança do Piriá;PA;15;Pará;Não;1;Norte;-46.962093;-2.267626
1504976;150497;Nova Ipixuna;PA;15;Pará;Não;1;Norte;-49.079887;-4.923086
1505007;150500;Nova Timboteua;PA;15;Pará;Não;1;Norte;-47.393202;-1.204144
1505031;150503;Novo Progresso;PA;15;Pará;Não;1;Norte;-55.419870;-7.034836
1505064;150506;Novo Repartimento;PA;15;Pará;Não;1;Norte;-49.948638;-4.248149
1505106;150510;Óbidos;PA;15;Pará;Não;1;Norte;-55.516324;-1.909235
1505205;150520;Oeiras do Pará;PA;15;Pará;Não;1;Norte;-49.855106;-2.004734
1505304;150530;Oriximiná;PA;15;Pará;Não;1;Norte;-55.862800;-1.763754
1505403;150540;Ourém;PA;15;Pará;Não;1;Norte;-47.117619;-1.548947
1505437;150543;Ourilândia do Norte;PA;15;Pará;Não;1;Norte;-51.090833;-6.740617
1505486;150548;Pacajá;PA;15;Pará;Não;1;Norte;-50.634841;-3.830306
1505494;150549;Palestina do Pará;PA;15;Pará;Não;1;Norte;-48.321794;-5.749934
1505502;150550;Paragominas;PA;15;Pará;Não;1;Norte;-47.356962;-2.994191
1505536;150553;Parauapebas;PA;15;Pará;Não;1;Norte;-49.900781;-6.072730
1505551;150555;Pau d`Arco;PA;15;Pará;Não;1;Norte;-50.048276;-7.836794
1505601;150560;Peixe-Boi;PA;15;Pará;Não;1;Norte;-47.317927;-1.189569
1505635;150563;Piçarra;PA;15;Pará;Não;1;Norte;-48.868401;-6.453676
1505650;150565;Placas;PA;15;Pará;Não;1;Norte;-54.216968;-3.867316
1505700;150570;Ponta de Pedras;PA;15;Pará;Não;1;Norte;-48.871786;-1.396600
1505809;150580;Portel;PA;15;Pará;Não;1;Norte;-50.822490;-1.936451
1505908;150590;Porto de Moz;PA;15;Pará;Não;1;Norte;-52.242477;-1.746090
1506005;150600;Prainha;PA;15;Pará;Não;1;Norte;-53.481814;-1.805695
1506104;150610;Primavera;PA;15;Pará;Não;1;Norte;-47.117251;-0.940112
1506112;150611;Quatipuru;PA;15;Pará;Não;1;Norte;-47.006787;-0.900116
1506138;150613;Redenção;PA;15;Pará;Não;1;Norte;-50.029642;-8.027605
1506161;150616;Rio Maria;PA;15;Pará;Não;1;Norte;-50.046411;-7.311115
1506187;150618;Rondon do Pará;PA;15;Pará;Não;1;Norte;-48.069974;-4.777822
1506195;150619;Rurópolis;PA;15;Pará;Não;1;Norte;-54.905862;-4.099065
1506203;150620;Salinópolis;PA;15;Pará;Não;1;Norte;-47.353120;-0.623638
1506302;150630;Salvaterra;PA;15;Pará;Não;1;Norte;-48.513187;-0.754526
1506351;150635;Santa Bárbara do Pará;PA;15;Pará;Não;1;Norte;-48.297741;-1.229439
1506401;150640;Santa Cruz do Arari;PA;15;Pará;Não;1;Norte;-49.171616;-0.659974
1506500;150650;Santa Isabel do Pará;PA;15;Pará;Não;1;Norte;-48.163060;-1.297396
1506559;150655;Santa Luzia do Pará;PA;15;Pará;Não;1;Norte;-46.906169;-1.518828
1506583;150658;Santa Maria das Barreiras;PA;15;Pará;Não;1;Norte;-49.719352;-8.870551
1506609;150660;Santa Maria do Pará;PA;15;Pará;Não;1;Norte;-47.574695;-1.347866
1506708;150670;Santana do Araguaia;PA;15;Pará;Não;1;Norte;-50.344804;-9.329425
1506807;150680;Santarém;PA;15;Pará;Não;1;Norte;-54.718570;-2.436213
1506906;150690;Santarém Novo;PA;15;Pará;Não;1;Norte;-47.400925;-0.928720
1507003;150700;Santo Antônio do Tauá;PA;15;Pará;Não;1;Norte;-48.132433;-1.151693
1507102;150710;São Caetano de Odivelas;PA;15;Pará;Não;1;Norte;-48.025805;-0.746618
1507151;150715;São Domingos do Araguaia;PA;15;Pará;Não;1;Norte;-48.720373;-5.549841
1507201;150720;São Domingos do Capim;PA;15;Pará;Não;1;Norte;-47.774785;-1.675815
1507300;150730;São Félix do Xingu;PA;15;Pará;Não;1;Norte;-51.993783;-6.642483
1507409;150740;São Francisco do Pará;PA;15;Pará;Não;1;Norte;-47.790515;-1.170189
1507458;150745;São Geraldo do Araguaia;PA;15;Pará;Não;1;Norte;-48.555712;-6.398958
1507466;150746;São João da Ponta;PA;15;Pará;Não;1;Norte;-47.920724;-0.851002
1507474;150747;São João de Pirabas;PA;15;Pará;Não;1;Norte;-47.172674;-0.766443
1507508;150750;São João do Araguaia;PA;15;Pará;Não;1;Norte;-48.788633;-5.359003
1507607;150760;São Miguel do Guamá;PA;15;Pará;Não;1;Norte;-47.482409;-1.617136
1507706;150770;São Sebastião da Boa Vista;PA;15;Pará;Não;1;Norte;-49.532312;-1.718851
1507755;150775;Sapucaia;PA;15;Pará;Não;1;Norte;-49.703581;-6.942857
1507805;150780;Senador José Porfírio;PA;15;Pará;Não;1;Norte;-51.953056;-2.594850
1507904;150790;Soure;PA;15;Pará;Não;1;Norte;-48.516013;-0.725926
1507953;150795;Tailândia;PA;15;Pará;Não;1;Norte;-48.951282;-2.937080
1507961;150796;Terra Alta;PA;15;Pará;Não;1;Norte;-47.907808;-1.034827
1507979;150797;Terra Santa;PA;15;Pará;Não;1;Norte;-56.490905;-2.108114
1508001;150800;Tomé-Açu;PA;15;Pará;Não;1;Norte;-48.146897;-2.419367
1508035;150803;Tracuateua;PA;15;Pará;Não;1;Norte;-46.899478;-1.068784
1508050;150805;Trairão;PA;15;Pará;Não;1;Norte;-55.996170;-4.699819
1508084;150808;Tucumã;PA;15;Pará;Não;1;Norte;-51.139539;-6.749972
1508100;150810;Tucuruí;PA;15;Pará;Não;1;Norte;-49.667184;-3.766889
1508126;150812;Ulianópolis;PA;15;Pará;Não;1;Norte;-47.503145;-3.757193
1508159;150815;Uruará;PA;15;Pará;Não;1;Norte;-53.737031;-3.706529
1508209;150820;Vigia;PA;15;Pará;Não;1;Norte;-48.141499;-0.855533
1508308;150830;Viseu;PA;15;Pará;Não;1;Norte;-46.138765;-1.203279
1508357;150835;Vitória do Xingu;PA;15;Pará;Não;1;Norte;-52.011260;-2.883766
1508407;150840;Xinguara;PA;15;Pará;Não;1;Norte;-49.942701;-7.101513
1100015;110001;Alta Floresta d`Oeste;RO;11;Rondônia;Não;1;Norte;-61.999824;-11.935540
1100023;110002;Ariquemes;RO;11;Rondônia;Não;1;Norte;-63.033269;-9.908463
1100031;110003;Cabixi;RO;11;Rondônia;Não;1;Norte;-60.544314;-13.499763
1100049;110004;Cacoal;RO;11;Rondônia;Não;1;Norte;-61.442944;-11.433865
1100056;110005;Cerejeiras;RO;11;Rondônia;Não;1;Norte;-60.818426;-13.195033
1100064;110006;Colorado do Oeste;RO;11;Rondônia;Não;1;Norte;-60.555067;-13.130564
1100072;110007;Corumbiara;RO;11;Rondônia;Não;1;Norte;-60.948701;-12.997520
1100080;110008;Costa Marques;RO;11;Rondônia;Não;1;Norte;-64.231654;-12.436014
1100098;110009;Espigão d`Oeste;RO;11;Rondônia;Não;1;Norte;-61.020173;-11.528555
1100106;110010;Guajará-Mirim;RO;11;Rondônia;Não;1;Norte;-65.323952;-10.773884
1100114;110011;Jaru;RO;11;Rondônia;Não;1;Norte;-62.476231;-10.435949
1100122;110012;Ji-Paraná;RO;11;Rondônia;Não;1;Norte;-61.945095;-10.882051
1100130;110013;Machadinho d`Oeste;RO;11;Rondônia;Não;1;Norte;-61.999593;-9.425562
1100148;110014;Nova Brasilândia d`Oeste;RO;11;Rondônia;Não;1;Norte;-62.308230;-11.721325
1100155;110015;Ouro Preto do Oeste;RO;11;Rondônia;Não;1;Norte;-62.261055;-10.723574
1100189;110018;Pimenta Bueno;RO;11;Rondônia;Não;1;Norte;-61.183666;-11.677537
1100205;110020;Porto Velho;RO;11;Rondônia;Sim;1;Norte;-63.831446;-8.768892
1100254;110025;Presidente Médici;RO;11;Rondônia;Não;1;Norte;-61.909439;-11.173205
1100262;110026;Rio Crespo;RO;11;Rondônia;Não;1;Norte;-62.900010;-9.705537
1100288;110028;Rolim de Moura;RO;11;Rondônia;Não;1;Norte;-61.785781;-11.722259
1100296;110029;Santa Luzia d`Oeste;RO;11;Rondônia;Não;1;Norte;-61.773305;-11.908423
1100304;110030;Vilhena;RO;11;Rondônia;Não;1;Norte;-60.138584;-12.741373
1100320;110032;São Miguel do Guaporé;RO;11;Rondônia;Não;1;Norte;-62.720063;-11.699490
1100338;110033;Nova Mamoré;RO;11;Rondônia;Não;1;Norte;-65.329149;-10.411771
1100346;110034;Alvorada d`Oeste;RO;11;Rondônia;Não;1;Norte;-62.277275;-11.344130
1100379;110037;Alto Alegre dos Parecis;RO;11;Rondônia;Não;1;Norte;-61.853077;-12.131777
1100403;110040;Alto Paraíso;RO;11;Rondônia;Não;1;Norte;-63.317629;-9.716667
1100452;110045;Buritis;RO;11;Rondônia;Não;1;Norte;-63.829679;-10.209805
1100502;110050;Novo Horizonte do Oeste;RO;11;Rondônia;Não;1;Norte;-61.994388;-11.709743
1100601;110060;Cacaulândia;RO;11;Rondônia;Não;1;Norte;-62.903190;-10.338873
1100700;110070;Campo Novo de Rondônia;RO;11;Rondônia;Não;1;Norte;-63.624991;-10.568416
1100809;110080;Candeias do Jamari;RO;11;Rondônia;Não;1;Norte;-63.700020;-8.785021
1100908;110090;Castanheiras;RO;11;Rondônia;Não;1;Norte;-61.949161;-11.426842
1100924;110092;Chupinguaia;RO;11;Rondônia;Não;1;Norte;-60.901848;-12.556841
1100940;110094;Cujubim;RO;11;Rondônia;Não;1;Norte;-62.587175;-9.378193
1101005;110100;Governador Jorge Teixeira;RO;11;Rondônia;Não;1;Norte;-62.740458;-10.612072
1101104;110110;Itapuã do Oeste;RO;11;Rondônia;Não;1;Norte;-63.182337;-9.191872
1101203;110120;Ministro Andreazza;RO;11;Rondônia;Não;1;Norte;-61.518922;-11.196238
1101302;110130;Mirante da Serra;RO;11;Rondônia;Não;1;Norte;-62.669427;-11.045609
1101401;110140;Monte Negro;RO;11;Rondônia;Não;1;Norte;-63.295559;-10.263098
1101435;110143;Nova União;RO;11;Rondônia;Não;1;Norte;-62.555089;-10.915532
1101450;110145;Parecis;RO;11;Rondônia;Não;1;Norte;-61.597998;-12.179827
1101468;110146;Pimenteiras do Oeste;RO;11;Rondônia;Não;1;Norte;-61.044379;-13.476562
1101476;110147;Primavera de Rondônia;RO;11;Rondônia;Não;1;Norte;-61.316546;-11.825707
1101484;110148;São Felipe d`Oeste;RO;11;Rondônia;Não;1;Norte;-61.512508;-11.914389
1101492;110149;São Francisco do Guaporé;RO;11;Rondônia;Não;1;Norte;-63.570865;-12.063798
1101500;110150;Seringueiras;RO;11;Rondônia;Não;1;Norte;-63.038761;-11.767117
1101559;110155;Teixeirópolis;RO;11;Rondônia;Não;1;Norte;-62.255922;-10.932169
1101609;110160;Theobroma;RO;11;Rondônia;Não;1;Norte;-62.345146;-10.248731
1101708;110170;Urupá;RO;11;Rondônia;Não;1;Norte;-62.370632;-11.128545
1101757;110175;Vale do Anari;RO;11;Rondônia;Não;1;Norte;-62.176823;-9.851393
1101807;110180;Vale do Paraíso;RO;11;Rondônia;Não;1;Norte;-62.134390;-10.431053
1400027;140002;Amajari;RR;14;Roraima;Não;1;Norte;-61.420590;3.652118
1400050;140005;Alto Alegre;RR;14;Roraima;Não;1;Norte;-61.314022;2.993823
1400100;140010;Boa Vista;RR;14;Roraima;Sim;1;Norte;-60.670533;2.816682
1400159;140015;Bonfim;RR;14;Roraima;Não;1;Norte;-59.878007;3.350289
1400175;140017;Cantá;RR;14;Roraima;Não;1;Norte;-60.602063;2.607666
1400209;140020;Caracaraí;RR;14;Roraima;Não;1;Norte;-61.149177;1.803871
1400233;140023;Caroebe;RR;14;Roraima;Não;1;Norte;-59.694810;0.872675
1400282;140028;Iracema;RR;14;Roraima;Não;1;Norte;-61.052259;2.168215
1400308;140030;Mucajaí;RR;14;Roraima;Não;1;Norte;-60.911519;2.479772
1400407;140040;Normandia;RR;14;Roraima;Não;1;Norte;-59.635206;3.882978
1400456;140045;Pacaraima;RR;14;Roraima;Não;1;Norte;-61.147306;4.475259
1400472;140047;Rorainópolis;RR;14;Roraima;Não;1;Norte;-60.425060;0.937195
1400506;140050;São João da Baliza;RR;14;Roraima;Não;1;Norte;-59.906044;0.947157
1400605;140060;São Luiz;RR;14;Roraima;Não;1;Norte;-60.028267;1.018112
1400704;140070;Uiramutã;RR;14;Roraima;Não;1;Norte;-60.195716;4.585440
1700251;170025;Abreulândia;TO;17;Tocantins;Não;1;Norte;-49.162438;-9.621791
1700301;170030;Aguiarnópolis;TO;17;Tocantins;Não;1;Norte;-47.470457;-6.547171
1700350;170035;Aliança do Tocantins;TO;17;Tocantins;Não;1;Norte;-48.941240;-11.303743
1700400;170040;Almas;TO;17;Tocantins;Não;1;Norte;-47.174172;-11.574523
1700707;170070;Alvorada;TO;17;Tocantins;Não;1;Norte;-49.126811;-12.478815
1701002;170100;Ananás;TO;17;Tocantins;Não;1;Norte;-48.079765;-6.362818
1701051;170105;Angico;TO;17;Tocantins;Não;1;Norte;-47.862078;-6.387753
1701101;170110;Aparecida do Rio Negro;TO;17;Tocantins;Não;1;Norte;-47.976670;-9.955878
1701309;170130;Aragominas;TO;17;Tocantins;Não;1;Norte;-48.523430;-7.164349
1701903;170190;Araguacema;TO;17;Tocantins;Não;1;Norte;-49.561813;-8.801803
1702000;170200;Araguaçu;TO;17;Tocantins;Não;1;Norte;-49.828612;-12.925584
1702109;170210;Araguaína;TO;17;Tocantins;Não;1;Norte;-48.208705;-7.191329
1702158;170215;Araguanã;TO;17;Tocantins;Não;1;Norte;-48.643750;-6.582249
1702208;170220;Araguatins;TO;17;Tocantins;Não;1;Norte;-48.123507;-5.650586
1702307;170230;Arapoema;TO;17;Tocantins;Não;1;Norte;-49.075637;-7.652570
1702406;170240;Arraias;TO;17;Tocantins;Não;1;Norte;-46.946107;-12.934420
1702554;170255;Augustinópolis;TO;17;Tocantins;Não;1;Norte;-47.880957;-5.465414
1702703;170270;Aurora do Tocantins;TO;17;Tocantins;Não;1;Norte;-46.407083;-12.708490
1702901;170290;Axixá do Tocantins;TO;17;Tocantins;Não;1;Norte;-47.774156;-5.624309
1703008;170300;Babaçulândia;TO;17;Tocantins;Não;1;Norte;-47.758816;-7.201865
1703057;170305;Bandeirantes do Tocantins;TO;17;Tocantins;Não;1;Norte;-48.578381;-7.764859
1703073;170307;Barra do Ouro;TO;17;Tocantins;Não;1;Norte;-47.687135;-7.691767
1703107;170310;Barrolândia;TO;17;Tocantins;Não;1;Norte;-48.731461;-9.831653
1703206;170320;Bernardo Sayão;TO;17;Tocantins;Não;1;Norte;-48.899054;-7.868512
1703305;170330;Bom Jesus do Tocantins;TO;17;Tocantins;Não;1;Norte;-48.166380;-8.963348
1703602;170360;Brasilândia do Tocantins;TO;17;Tocantins;Não;1;Norte;-48.485374;-8.384889
1703701;170370;Brejinho de Nazaré;TO;17;Tocantins;Não;1;Norte;-48.558660;-11.010805
1703800;170380;Buriti do Tocantins;TO;17;Tocantins;Não;1;Norte;-48.223250;-5.313539
1703826;170382;Cachoeirinha;TO;17;Tocantins;Não;1;Norte;-47.914198;-6.113242
1703842;170384;Campos Lindos;TO;17;Tocantins;Não;1;Norte;-46.801974;-7.971681
1703867;170386;Cariri do Tocantins;TO;17;Tocantins;Não;1;Norte;-49.171041;-11.888997
1703883;170388;Carmolândia;TO;17;Tocantins;Não;1;Norte;-48.395960;-7.031479
1703891;170389;Carrasco Bonito;TO;17;Tocantins;Não;1;Norte;-48.030633;-5.322661
1703909;170390;Caseara;TO;17;Tocantins;Não;1;Norte;-49.948692;-9.267406
1704105;170410;Centenário;TO;17;Tocantins;Não;1;Norte;-47.338399;-8.958464
1704600;170460;Chapada de Areia;TO;17;Tocantins;Não;1;Norte;-49.183108;-10.141989
1705102;170510;Chapada da Natividade;TO;17;Tocantins;Não;1;Norte;-47.753905;-11.624268
1705508;170550;Colinas do Tocantins;TO;17;Tocantins;Não;1;Norte;-48.481595;-8.054625
1705557;170555;Combinado;TO;17;Tocantins;Não;1;Norte;-46.552072;-12.818608
1705607;170560;Conceição do Tocantins;TO;17;Tocantins;Não;1;Norte;-47.292869;-12.217278
1706001;170600;Couto Magalhães;TO;17;Tocantins;Não;1;Norte;-49.176572;-8.355118
1706100;170610;Cristalândia;TO;17;Tocantins;Não;1;Norte;-49.186300;-10.590725
1706258;170625;Crixás do Tocantins;TO;17;Tocantins;Não;1;Norte;-48.915514;-11.104274
1706506;170650;Darcinópolis;TO;17;Tocantins;Não;1;Norte;-47.752161;-6.712351
1707009;170700;Dianópolis;TO;17;Tocantins;Não;1;Norte;-46.820409;-11.625232
1707108;170710;Divinópolis do Tocantins;TO;17;Tocantins;Não;1;Norte;-49.205413;-9.795301
1707207;170720;Dois Irmãos do Tocantins;TO;17;Tocantins;Não;1;Norte;-49.067339;-9.261297
1707306;170730;Dueré;TO;17;Tocantins;Não;1;Norte;-49.265876;-11.341285
1707405;170740;Esperantina;TO;17;Tocantins;Não;1;Norte;-48.544148;-5.366608
1707553;170755;Fátima;TO;17;Tocantins;Não;1;Norte;-48.898983;-10.752509
1707652;170765;Figueirópolis;TO;17;Tocantins;Não;1;Norte;-49.173847;-12.136780
1707702;170770;Filadélfia;TO;17;Tocantins;Não;1;Norte;-47.484964;-7.337612
1708205;170820;Formoso do Araguaia;TO;17;Tocantins;Não;1;Norte;-49.526860;-11.805142
1708254;170825;Fortaleza do Tabocão;TO;17;Tocantins;Não;1;Norte;-48.517426;-9.058965
1708304;170830;Goianorte;TO;17;Tocantins;Não;1;Norte;-48.936890;-8.770521
1709005;170900;Goiatins;TO;17;Tocantins;Não;1;Norte;-47.315435;-7.709172
1709302;170930;Guaraí;TO;17;Tocantins;Não;1;Norte;-48.508641;-8.836166
1709500;170950;Gurupi;TO;17;Tocantins;Não;1;Norte;-49.071477;-11.729772
1709807;170980;Ipueiras;TO;17;Tocantins;Não;1;Norte;-48.451926;-11.246289
1710508;171050;Itacajá;TO;17;Tocantins;Não;1;Norte;-47.768112;-8.390981
1710706;171070;Itaguatins;TO;17;Tocantins;Não;1;Norte;-47.479936;-5.775385
1710904;171090;Itapiratins;TO;17;Tocantins;Não;1;Norte;-48.111200;-8.384330
1711100;171110;Itaporã do Tocantins;TO;17;Tocantins;Não;1;Norte;-48.693264;-8.568829
1711506;171150;Jaú do Tocantins;TO;17;Tocantins;Não;1;Norte;-48.594608;-12.652926
1711803;171180;Juarina;TO;17;Tocantins;Não;1;Norte;-49.098643;-8.117424
1711902;171190;Lagoa da Confusão;TO;17;Tocantins;Não;1;Norte;-49.620085;-10.788696
1711951;171195;Lagoa do Tocantins;TO;17;Tocantins;Não;1;Norte;-47.561447;-10.296887
1712009;171200;Lajeado;TO;17;Tocantins;Não;1;Norte;-48.358504;-9.744682
1712157;171215;Lavandeira;TO;17;Tocantins;Não;1;Norte;-46.506676;-12.791659
1712405;171240;Lizarda;TO;17;Tocantins;Não;1;Norte;-46.675165;-9.594570
1712454;171245;Luzinópolis;TO;17;Tocantins;Não;1;Norte;-47.856828;-6.193990
1712504;171250;Marianópolis do Tocantins;TO;17;Tocantins;Não;1;Norte;-49.651034;-9.798880
1712702;171270;Mateiros;TO;17;Tocantins;Não;1;Norte;-46.412466;-10.544429
1712801;171280;Maurilândia do Tocantins;TO;17;Tocantins;Não;1;Norte;-47.504880;-5.952566
1713205;171320;Miracema do Tocantins;TO;17;Tocantins;Não;1;Norte;-48.387991;-9.568346
1713304;171330;Miranorte;TO;17;Tocantins;Não;1;Norte;-48.592632;-9.517405
1713601;171360;Monte do Carmo;TO;17;Tocantins;Não;1;Norte;-48.110420;-10.763542
1713700;171370;Monte Santo do Tocantins;TO;17;Tocantins;Não;1;Norte;-48.990891;-10.005591
1713809;171380;Palmeiras do Tocantins;TO;17;Tocantins;Não;1;Norte;-47.558684;-6.611862
1713957;171395;Muricilândia;TO;17;Tocantins;Não;1;Norte;-48.606745;-7.138519
1714203;171420;Natividade;TO;17;Tocantins;Não;1;Norte;-47.727258;-11.705357
1714302;171430;Nazaré;TO;17;Tocantins;Não;1;Norte;-47.666977;-6.372558
1714880;171488;Nova Olinda;TO;17;Tocantins;Não;1;Norte;-48.424807;-7.633315
1715002;171500;Nova Rosalândia;TO;17;Tocantins;Não;1;Norte;-48.906181;-10.566871
1715101;171510;Novo Acordo;TO;17;Tocantins;Não;1;Norte;-47.668148;-9.968486
1715150;171515;Novo Alegre;TO;17;Tocantins;Não;1;Norte;-46.577297;-12.909939
1715259;171525;Novo Jardim;TO;17;Tocantins;Não;1;Norte;-46.630787;-11.815875
1715507;171550;Oliveira de Fátima;TO;17;Tocantins;Não;1;Norte;-48.907402;-10.708363
1715705;171570;Palmeirante;TO;17;Tocantins;Não;1;Norte;-47.934250;-7.857561
1715754;171575;Palmeirópolis;TO;17;Tocantins;Não;1;Norte;-48.413414;-13.039888
1716109;171610;Paraíso do Tocantins;TO;17;Tocantins;Não;1;Norte;-48.886630;-10.171221
1716208;171620;Paranã;TO;17;Tocantins;Não;1;Norte;-47.884084;-12.620481
1716307;171630;Pau d`Arco;TO;17;Tocantins;Não;1;Norte;-49.363306;-7.539998
1716505;171650;Pedro Afonso;TO;17;Tocantins;Não;1;Norte;-48.177556;-8.964450
1716604;171660;Peixe;TO;17;Tocantins;Não;1;Norte;-48.537811;-12.029774
1716653;171665;Pequizeiro;TO;17;Tocantins;Não;1;Norte;-48.935180;-8.593341
1716703;171670;Colméia;TO;17;Tocantins;Não;1;Norte;-48.757067;-8.729372
1717008;171700;Pindorama do Tocantins;TO;17;Tocantins;Não;1;Norte;-47.575688;-11.138203
1717206;171720;Piraquê;TO;17;Tocantins;Não;1;Norte;-48.293707;-6.769777
1717503;171750;Pium;TO;17;Tocantins;Não;1;Norte;-49.166658;-10.440931
1717800;171780;Ponte Alta do Bom Jesus;TO;17;Tocantins;Não;1;Norte;-46.469587;-12.087813
1717909;171790;Ponte Alta do Tocantins;TO;17;Tocantins;Não;1;Norte;-47.541180;-10.740673
1718006;171800;Porto Alegre do Tocantins;TO;17;Tocantins;Não;1;Norte;-47.047426;-11.607259
1718204;171820;Porto Nacional;TO;17;Tocantins;Não;1;Norte;-48.412153;-10.708570
1718303;171830;Praia Norte;TO;17;Tocantins;Não;1;Norte;-47.814732;-5.396713
1718402;171840;Presidente Kennedy;TO;17;Tocantins;Não;1;Norte;-48.504331;-8.529961
1718451;171845;Pugmil;TO;17;Tocantins;Não;1;Norte;-48.894220;-10.424307
1718501;171850;Recursolândia;TO;17;Tocantins;Não;1;Norte;-47.238041;-8.735360
1718550;171855;Riachinho;TO;17;Tocantins;Não;1;Norte;-48.141046;-6.442211
1718659;171865;Rio da Conceição;TO;17;Tocantins;Não;1;Norte;-46.880400;-11.404940
1718709;171870;Rio dos Bois;TO;17;Tocantins;Não;1;Norte;-48.533048;-9.343742
1718758;171875;Rio Sono;TO;17;Tocantins;Não;1;Norte;-47.899942;-9.347789
1718808;171880;Sampaio;TO;17;Tocantins;Não;1;Norte;-47.875792;-5.349296
1718840;171884;Sandolândia;TO;17;Tocantins;Não;1;Norte;-49.933388;-12.541600
1718865;171886;Santa Fé do Araguaia;TO;17;Tocantins;Não;1;Norte;-48.693942;-7.149936
1718881;171888;Santa Maria do Tocantins;TO;17;Tocantins;Não;1;Norte;-47.745270;-8.774976
1718899;171889;Santa Rita do Tocantins;TO;17;Tocantins;Não;1;Norte;-48.909294;-10.866455
1718907;171890;Santa Rosa do Tocantins;TO;17;Tocantins;Não;1;Norte;-48.119954;-11.451404
1719004;171900;Santa Tereza do Tocantins;TO;17;Tocantins;Não;1;Norte;-47.806288;-10.282362
1720002;172000;Santa Terezinha do Tocantins;TO;17;Tocantins;Não;1;Norte;-47.684285;-6.436998
1720101;172010;São Bento do Tocantins;TO;17;Tocantins;Não;1;Norte;-47.919392;-6.044999
1720150;172015;São Félix do Tocantins;TO;17;Tocantins;Não;1;Norte;-46.654981;-10.173286
1720200;172020;São Miguel do Tocantins;TO;17;Tocantins;Não;1;Norte;-47.573002;-5.553820
1720259;172025;São Salvador do Tocantins;TO;17;Tocantins;Não;1;Norte;-48.232085;-12.747433
1720309;172030;São Sebastião do Tocantins;TO;17;Tocantins;Não;1;Norte;-48.203834;-5.258961
1720499;172049;São Valério;TO;17;Tocantins;Não;1;Norte;-48.232948;-11.973067
1720655;172065;Silvanópolis;TO;17;Tocantins;Não;1;Norte;-48.179824;-11.149861
1720804;172080;Sítio Novo do Tocantins;TO;17;Tocantins;Não;1;Norte;-47.637423;-5.604727
1720853;172085;Sucupira;TO;17;Tocantins;Não;1;Norte;-48.911126;-11.986222
1720903;172090;Taguatinga;TO;17;Tocantins;Não;1;Norte;-46.438732;-12.396142
1720937;172093;Taipas do Tocantins;TO;17;Tocantins;Não;1;Norte;-46.984572;-12.192837
1720978;172097;Talismã;TO;17;Tocantins;Não;1;Norte;-49.091118;-12.787538
1721000;172100;Palmas;TO;17;Tocantins;Sim;1;Norte;-48.351044;-10.163253
1721109;172110;Tocantínia;TO;17;Tocantins;Não;1;Norte;-48.375880;-9.558148
1721208;172120;Tocantinópolis;TO;17;Tocantins;Não;1;Norte;-47.427413;-6.325634
1721257;172125;Tupirama;TO;17;Tocantins;Não;1;Norte;-48.206685;-8.980570
1721307;172130;Tupiratins;TO;17;Tocantins;Não;1;Norte;-48.122996;-8.395530
1722081;172208;Wanderlândia;TO;17;Tocantins;Não;1;Norte;-47.956268;-6.850126
1722107;172210;Xambioá;TO;17;Tocantins;Não;1;Norte;-48.531601;-6.411885
2700102;270010;Água Branca;AL;27;Alagoas;Não;2;Nordeste;-37.940715;-9.267025
2700201;270020;Anadia;AL;27;Alagoas;Não;2;Nordeste;-36.300814;-9.684084
2700300;270030;Arapiraca;AL;27;Alagoas;Não;2;Nordeste;-36.657297;-9.755907
2700409;270040;Atalaia;AL;27;Alagoas;Não;2;Nordeste;-36.021427;-9.501387
2700508;270050;Barra de Santo Antônio;AL;27;Alagoas;Não;2;Nordeste;-35.500298;-9.409278
2700607;270060;Barra de São Miguel;AL;27;Alagoas;Não;2;Nordeste;-35.907450;-9.838998
2700706;270070;Batalha;AL;27;Alagoas;Não;2;Nordeste;-37.127092;-9.674593
2700805;270080;Belém;AL;27;Alagoas;Não;2;Nordeste;-36.494498;-9.568648
2700904;270090;Belo Monte;AL;27;Alagoas;Não;2;Nordeste;-37.278439;-9.826989
2701001;270100;Boca da Mata;AL;27;Alagoas;Não;2;Nordeste;-36.211725;-9.645145
2701100;270110;Branquinha;AL;27;Alagoas;Não;2;Nordeste;-36.020034;-9.246583
2701209;270120;Cacimbinhas;AL;27;Alagoas;Não;2;Nordeste;-36.996870;-9.405163
2701308;270130;Cajueiro;AL;27;Alagoas;Não;2;Nordeste;-36.156379;-9.389661
2701357;270135;Campestre;AL;27;Alagoas;Não;2;Nordeste;-35.566718;-8.848375
2701407;270140;Campo Alegre;AL;27;Alagoas;Não;2;Nordeste;-36.352435;-9.783416
2701506;270150;Campo Grande;AL;27;Alagoas;Não;2;Nordeste;-36.790840;-9.956923
2701605;270160;Canapi;AL;27;Alagoas;Não;2;Nordeste;-37.605647;-9.117380
2701704;270170;Capela;AL;27;Alagoas;Não;2;Nordeste;-36.075008;-9.412932
2701803;270180;Carneiros;AL;27;Alagoas;Não;2;Nordeste;-37.374750;-9.480680
2701902;270190;Chã Preta;AL;27;Alagoas;Não;2;Nordeste;-36.299381;-9.261422
2702009;270200;Coité do Nóia;AL;27;Alagoas;Não;2;Nordeste;-36.579684;-9.638487
2702108;270210;Colônia Leopoldina;AL;27;Alagoas;Não;2;Nordeste;-35.719781;-8.912688
2702207;270220;Coqueiro Seco;AL;27;Alagoas;Não;2;Nordeste;-35.795363;-9.637554
2702306;270230;Coruripe;AL;27;Alagoas;Não;2;Nordeste;-36.176078;-10.126547
2702355;270235;Craíbas;AL;27;Alagoas;Não;2;Nordeste;-36.772391;-9.619934
2702405;270240;Delmiro Gouveia;AL;27;Alagoas;Não;2;Nordeste;-37.999233;-9.384574
2702504;270250;Dois Riachos;AL;27;Alagoas;Não;2;Nordeste;-37.089850;-9.385671
2702553;270255;Estrela de Alagoas;AL;27;Alagoas;Não;2;Nordeste;-36.758333;-9.387405
2702603;270260;Feira Grande;AL;27;Alagoas;Não;2;Nordeste;-36.677686;-9.900437
2702702;270270;Feliz Deserto;AL;27;Alagoas;Não;2;Nordeste;-36.307188;-10.292381
2702801;270280;Flexeiras;AL;27;Alagoas;Não;2;Nordeste;-35.724372;-9.273235
2702900;270290;Girau do Ponciano;AL;27;Alagoas;Não;2;Nordeste;-36.830314;-9.887364
2703007;270300;Ibateguara;AL;27;Alagoas;Não;2;Nordeste;-35.931184;-8.976985
2703106;270310;Igaci;AL;27;Alagoas;Não;2;Nordeste;-36.628160;-9.533689
2703205;270320;Igreja Nova;AL;27;Alagoas;Não;2;Nordeste;-36.653345;-10.129299
2703304;270330;Inhapi;AL;27;Alagoas;Não;2;Nordeste;-37.752637;-9.223899
2703403;270340;Jacaré dos Homens;AL;27;Alagoas;Não;2;Nordeste;-37.207833;-9.636659
2703502;270350;Jacuípe;AL;27;Alagoas;Não;2;Nordeste;-35.460998;-8.840301
2703601;270360;Japaratinga;AL;27;Alagoas;Não;2;Nordeste;-35.258658;-9.088974
2703700;270370;Jaramataia;AL;27;Alagoas;Não;2;Nordeste;-37.003596;-9.658352
2703759;270375;Jequiá da Praia;AL;27;Alagoas;Não;2;Nordeste;-36.027334;-10.009592
2703809;270380;Joaquim Gomes;AL;27;Alagoas;Não;2;Nordeste;-35.749030;-9.135979
2703908;270390;Jundiá;AL;27;Alagoas;Não;2;Nordeste;-35.555597;-8.938877
2704005;270400;Junqueiro;AL;27;Alagoas;Não;2;Nordeste;-36.471522;-9.931610
2704104;270410;Lagoa da Canoa;AL;27;Alagoas;Não;2;Nordeste;-36.735789;-9.830876
2704203;270420;Limoeiro de Anadia;AL;27;Alagoas;Não;2;Nordeste;-36.503897;-9.738613
2704302;270430;Maceió;AL;27;Alagoas;Sim;2;Nordeste;-35.701630;-9.660822
2704401;270440;Major Isidoro;AL;27;Alagoas;Não;2;Nordeste;-36.984800;-9.526644
2704500;270450;Maragogi;AL;27;Alagoas;Não;2;Nordeste;-35.223015;-9.015456
2704609;270460;Maravilha;AL;27;Alagoas;Não;2;Nordeste;-37.356635;-9.233997
2704708;270470;Marechal Deodoro;AL;27;Alagoas;Não;2;Nordeste;-35.893069;-9.739156
2704807;270480;Maribondo;AL;27;Alagoas;Não;2;Nordeste;-36.306603;-9.577250
2704906;270490;Mar Vermelho;AL;27;Alagoas;Não;2;Nordeste;-36.385040;-9.447773
2705002;270500;Mata Grande;AL;27;Alagoas;Não;2;Nordeste;-37.725224;-9.114806
2705101;270510;Matriz de Camaragibe;AL;27;Alagoas;Não;2;Nordeste;-35.533555;-9.158526
2705200;270520;Messias;AL;27;Alagoas;Não;2;Nordeste;-35.840378;-9.391812
2705309;270530;Minador do Negrão;AL;27;Alagoas;Não;2;Nordeste;-36.864916;-9.303683
2705408;270540;Monteirópolis;AL;27;Alagoas;Não;2;Nordeste;-37.245272;-9.602328
2705507;270550;Murici;AL;27;Alagoas;Não;2;Nordeste;-35.947556;-9.316301
2705606;270560;Novo Lino;AL;27;Alagoas;Não;2;Nordeste;-35.660964;-8.943159
2705705;270570;Olho d`Água das Flores;AL;27;Alagoas;Não;2;Nordeste;-37.297891;-9.533601
2705804;270580;Olho d`Água do Casado;AL;27;Alagoas;Não;2;Nordeste;-37.836243;-9.501446
2705903;270590;Olho d`Água Grande;AL;27;Alagoas;Não;2;Nordeste;-36.806746;-10.058495
2706000;270600;Olivença;AL;27;Alagoas;Não;2;Nordeste;-37.190819;-9.519456
2706109;270610;Ouro Branco;AL;27;Alagoas;Não;2;Nordeste;-37.354444;-9.163415
2706208;270620;Palestina;AL;27;Alagoas;Não;2;Nordeste;-37.331136;-9.673097
2706307;270630;Palmeira dos Índios;AL;27;Alagoas;Não;2;Nordeste;-36.630984;-9.406159
2706406;270640;Pão de Açúcar;AL;27;Alagoas;Não;2;Nordeste;-37.435139;-9.747042
2706422;270642;Pariconha;AL;27;Alagoas;Não;2;Nordeste;-38.009826;-9.257884
2706448;270644;Paripueira;AL;27;Alagoas;Não;2;Nordeste;-35.559105;-9.466313
2706505;270650;Passo de Camaragibe;AL;27;Alagoas;Não;2;Nordeste;-35.491275;-9.244847
2706604;270660;Paulo Jacinto;AL;27;Alagoas;Não;2;Nordeste;-36.372742;-9.373364
2706703;270670;Penedo;AL;27;Alagoas;Não;2;Nordeste;-36.580460;-10.296110
2706802;270680;Piaçabuçu;AL;27;Alagoas;Não;2;Nordeste;-36.434352;-10.407362
2706901;270690;Pilar;AL;27;Alagoas;Não;2;Nordeste;-35.948518;-9.606894
2707008;270700;Pindoba;AL;27;Alagoas;Não;2;Nordeste;-36.286541;-9.476211
2707107;270710;Piranhas;AL;27;Alagoas;Não;2;Nordeste;-37.750393;-9.623559
2707206;270720;Poço das Trincheiras;AL;27;Alagoas;Não;2;Nordeste;-37.279298;-9.302914
2707305;270730;Porto Calvo;AL;27;Alagoas;Não;2;Nordeste;-35.398334;-9.052448
2707404;270740;Porto de Pedras;AL;27;Alagoas;Não;2;Nordeste;-35.297015;-9.156086
2707503;270750;Porto Real do Colégio;AL;27;Alagoas;Não;2;Nordeste;-36.824629;-10.173733
2707602;270760;Quebrangulo;AL;27;Alagoas;Não;2;Nordeste;-36.477222;-9.323547
2707701;270770;Rio Largo;AL;27;Alagoas;Não;2;Nordeste;-35.852422;-9.486158
2707800;270780;Roteiro;AL;27;Alagoas;Não;2;Nordeste;-35.981210;-9.832189
2707909;270790;Santa Luzia do Norte;AL;27;Alagoas;Não;2;Nordeste;-35.823488;-9.596768
2708006;270800;Santana do Ipanema;AL;27;Alagoas;Não;2;Nordeste;-37.245407;-9.372284
2708105;270810;Santana do Mundaú;AL;27;Alagoas;Não;2;Nordeste;-36.225234;-9.165033
2708204;270820;São Brás;AL;27;Alagoas;Não;2;Nordeste;-36.898949;-10.120310
2708303;270830;São José da Laje;AL;27;Alagoas;Não;2;Nordeste;-36.057388;-9.011066
2708402;270840;São José da Tapera;AL;27;Alagoas;Não;2;Nordeste;-37.383708;-9.549396
2708501;270850;São Luís do Quitunde;AL;27;Alagoas;Não;2;Nordeste;-35.565491;-9.314117
2708600;270860;São Miguel dos Campos;AL;27;Alagoas;Não;2;Nordeste;-36.094264;-9.779935
2708709;270870;São Miguel dos Milagres;AL;27;Alagoas;Não;2;Nordeste;-35.369119;-9.267186
2708808;270880;São Sebastião;AL;27;Alagoas;Não;2;Nordeste;-36.551092;-9.931657
2708907;270890;Satuba;AL;27;Alagoas;Não;2;Nordeste;-35.828540;-9.569428
2708956;270895;Senador Rui Palmeira;AL;27;Alagoas;Não;2;Nordeste;-37.453646;-9.463391
2709004;270900;Tanque d`Arca;AL;27;Alagoas;Não;2;Nordeste;-36.436742;-9.531962
2709103;270910;Taquarana;AL;27;Alagoas;Não;2;Nordeste;-36.496768;-9.642320
2709152;270915;Teotônio Vilela;AL;27;Alagoas;Não;2;Nordeste;-36.355563;-9.907498
2709202;270920;Traipu;AL;27;Alagoas;Não;2;Nordeste;-37.006006;-9.971059
2709301;270930;União dos Palmares;AL;27;Alagoas;Não;2;Nordeste;-36.033143;-9.159524
2709400;270940;Viçosa;AL;27;Alagoas;Não;2;Nordeste;-36.248393;-9.377054
2900108;290010;Abaíra;BA;29;Bahia;Não;2;Nordeste;-41.661608;-13.253532
2900207;290020;Abaré;BA;29;Bahia;Não;2;Nordeste;-39.116588;-8.723418
2900306;290030;Acajutiba;BA;29;Bahia;Não;2;Nordeste;-38.018286;-11.662613
2900355;290035;Adustina;BA;29;Bahia;Não;2;Nordeste;-38.115506;-10.529572
2900405;290040;Água Fria;BA;29;Bahia;Não;2;Nordeste;-38.768078;-11.872931
2900504;290050;Érico Cardoso;BA;29;Bahia;Não;2;Nordeste;-42.136164;-13.422348
2900603;290060;Aiquara;BA;29;Bahia;Não;2;Nordeste;-39.885778;-14.127277
2900702;290070;Alagoinhas;BA;29;Bahia;Não;2;Nordeste;-38.422616;-12.134183
2900801;290080;Alcobaça;BA;29;Bahia;Não;2;Nordeste;-39.194214;-17.518933
2900900;290090;Almadina;BA;29;Bahia;Não;2;Nordeste;-39.635903;-14.706048
2901007;290100;Amargosa;BA;29;Bahia;Não;2;Nordeste;-39.598123;-13.034451
2901106;290110;Amélia Rodrigues;BA;29;Bahia;Não;2;Nordeste;-38.755557;-12.400188
2901155;290115;América Dourada;BA;29;Bahia;Não;2;Nordeste;-41.437163;-11.449646
2901205;290120;Anagé;BA;29;Bahia;Não;2;Nordeste;-41.127113;-14.611326
2901304;290130;Andaraí;BA;29;Bahia;Não;2;Nordeste;-41.324642;-12.801351
2901353;290135;Andorinha;BA;29;Bahia;Não;2;Nordeste;-39.832336;-10.344240
2901403;290140;Angical;BA;29;Bahia;Não;2;Nordeste;-44.695823;-12.006683
2901502;290150;Anguera;BA;29;Bahia;Não;2;Nordeste;-39.248499;-12.149587
2901601;290160;Antas;BA;29;Bahia;Não;2;Nordeste;-38.331042;-10.412702
2901700;290170;Antônio Cardoso;BA;29;Bahia;Não;2;Nordeste;-39.118662;-12.434839
2901809;290180;Antônio Gonçalves;BA;29;Bahia;Não;2;Nordeste;-40.275659;-10.575798
2901908;290190;Aporá;BA;29;Bahia;Não;2;Nordeste;-38.079995;-11.655394
2901957;290195;Apuarema;BA;29;Bahia;Não;2;Nordeste;-39.742132;-13.853229
2902005;290200;Aracatu;BA;29;Bahia;Não;2;Nordeste;-41.461685;-14.426630
2902054;290205;Araças;BA;29;Bahia;Não;2;Nordeste;-38.198288;-12.215200
2902104;290210;Araci;BA;29;Bahia;Não;2;Nordeste;-38.960958;-11.335728
2902203;290220;Aramari;BA;29;Bahia;Não;2;Nordeste;-38.503066;-12.088183
2902252;290225;Arataca;BA;29;Bahia;Não;2;Nordeste;-39.413282;-15.260873
2902302;290230;Aratuípe;BA;29;Bahia;Não;2;Nordeste;-39.002911;-13.080597
2902401;290240;Aurelino Leal;BA;29;Bahia;Não;2;Nordeste;-39.321997;-14.316949
2902500;290250;Baianópolis;BA;29;Bahia;Não;2;Nordeste;-44.536098;-12.304125
2902609;290260;Baixa Grande;BA;29;Bahia;Não;2;Nordeste;-40.166861;-11.959357
2902658;290265;Banzaê;BA;29;Bahia;Não;2;Nordeste;-38.611870;-10.574092
2902708;290270;Barra;BA;29;Bahia;Não;2;Nordeste;-43.143639;-11.088955
2902807;290280;Barra da Estiva;BA;29;Bahia;Não;2;Nordeste;-41.331696;-13.620205
2902906;290290;Barra do Choça;BA;29;Bahia;Não;2;Nordeste;-40.576373;-14.864273
2903003;290300;Barra do Mendes;BA;29;Bahia;Não;2;Nordeste;-42.059128;-11.808828
2903102;290310;Barra do Rocha;BA;29;Bahia;Não;2;Nordeste;-39.601386;-14.210029
2903201;290320;Barreiras;BA;29;Bahia;Não;2;Nordeste;-45.004168;-12.144925
2903235;290323;Barro Alto;BA;29;Bahia;Não;2;Nordeste;-41.912096;-11.761064
2903276;290327;Barrocas;BA;29;Bahia;Não;2;Nordeste;-39.078669;-11.529113
2903300;290330;Barro Preto;BA;29;Bahia;Não;2;Nordeste;-39.473335;-14.809754
2903409;290340;Belmonte;BA;29;Bahia;Não;2;Nordeste;-38.880303;-15.861396
2903508;290350;Belo Campo;BA;29;Bahia;Não;2;Nordeste;-41.260033;-15.033496
2903607;290360;Biritinga;BA;29;Bahia;Não;2;Nordeste;-38.812159;-11.620110
2903706;290370;Boa Nova;BA;29;Bahia;Não;2;Nordeste;-40.200522;-14.362608
2903805;290380;Boa Vista do Tupim;BA;29;Bahia;Não;2;Nordeste;-40.605743;-12.661322
2903904;290390;Bom Jesus da Lapa;BA;29;Bahia;Não;2;Nordeste;-43.417142;-13.254114
2903953;290395;Bom Jesus da Serra;BA;29;Bahia;Não;2;Nordeste;-40.501176;-14.372922
2904001;290400;Boninal;BA;29;Bahia;Não;2;Nordeste;-41.824328;-12.715121
2904050;290405;Bonito;BA;29;Bahia;Não;2;Nordeste;-41.268403;-11.969573
2904100;290410;Boquira;BA;29;Bahia;Não;2;Nordeste;-42.730115;-12.820823
2904209;290420;Botuporã;BA;29;Bahia;Não;2;Nordeste;-42.529278;-13.380866
2904308;290430;Brejões;BA;29;Bahia;Não;2;Nordeste;-39.793492;-13.105536
2904407;290440;Brejolândia;BA;29;Bahia;Não;2;Nordeste;-43.965665;-12.486693
2904506;290450;Brotas de Macaúbas;BA;29;Bahia;Não;2;Nordeste;-42.624691;-12.002636
2904605;290460;Brumado;BA;29;Bahia;Não;2;Nordeste;-41.667070;-14.205438
2904704;290470;Buerarema;BA;29;Bahia;Não;2;Nordeste;-39.302520;-14.956441
2904753;290475;Buritirama;BA;29;Bahia;Não;2;Nordeste;-43.631381;-10.711791
2904803;290480;Caatiba;BA;29;Bahia;Não;2;Nordeste;-40.410272;-14.978551
2904852;290485;Cabaceiras do Paraguaçu;BA;29;Bahia;Não;2;Nordeste;-39.186713;-12.537136
2904902;290490;Cachoeira;BA;29;Bahia;Não;2;Nordeste;-38.969398;-12.596211
2905008;290500;Caculé;BA;29;Bahia;Não;2;Nordeste;-42.221414;-14.504206
2905107;290510;Caém;BA;29;Bahia;Não;2;Nordeste;-40.437312;-11.093092
2905156;290515;Caetanos;BA;29;Bahia;Não;2;Nordeste;-40.909290;-14.338563
2905206;290520;Caetité;BA;29;Bahia;Não;2;Nordeste;-42.485711;-14.066754
2905305;290530;Cafarnaum;BA;29;Bahia;Não;2;Nordeste;-41.472222;-11.691356
2905404;290540;Cairu;BA;29;Bahia;Não;2;Nordeste;-39.043254;-13.487603
2905503;290550;Caldeirão Grande;BA;29;Bahia;Não;2;Nordeste;-40.307370;-11.022156
2905602;290560;Camacan;BA;29;Bahia;Não;2;Nordeste;-39.496367;-15.417627
2905701;290570;Camaçari;BA;29;Bahia;Não;2;Nordeste;-38.325740;-12.698817
2905800;290580;Camamu;BA;29;Bahia;Não;2;Nordeste;-39.100570;-13.947076
2905909;290590;Campo Alegre de Lourdes;BA;29;Bahia;Não;2;Nordeste;-43.012298;-9.517154
2906006;290600;Campo Formoso;BA;29;Bahia;Não;2;Nordeste;-40.318821;-10.505662
2906105;290610;Canápolis;BA;29;Bahia;Não;2;Nordeste;-44.205029;-13.075911
2906204;290620;Canarana;BA;29;Bahia;Não;2;Nordeste;-41.765492;-11.687583
2906303;290630;Canavieiras;BA;29;Bahia;Não;2;Nordeste;-38.947376;-15.679777
2906402;290640;Candeal;BA;29;Bahia;Não;2;Nordeste;-39.123718;-11.804970
2906501;290650;Candeias;BA;29;Bahia;Não;2;Nordeste;-38.543596;-12.671923
2906600;290660;Candiba;BA;29;Bahia;Não;2;Nordeste;-42.864402;-14.413187
2906709;290670;Cândido Sales;BA;29;Bahia;Não;2;Nordeste;-41.241118;-15.506066
2906808;290680;Cansanção;BA;29;Bahia;Não;2;Nordeste;-39.496605;-10.666750
2906824;290682;Canudos;BA;29;Bahia;Não;2;Nordeste;-39.024071;-9.890673
2906857;290685;Capela do Alto Alegre;BA;29;Bahia;Não;2;Nordeste;-39.835355;-11.670082
2906873;290687;Capim Grosso;BA;29;Bahia;Não;2;Nordeste;-40.011001;-11.381574
2906899;290689;Caraíbas;BA;29;Bahia;Não;2;Nordeste;-41.265431;-14.722069
2906907;290690;Caravelas;BA;29;Bahia;Não;2;Nordeste;-39.253382;-17.733371
2907004;290700;Cardeal da Silva;BA;29;Bahia;Não;2;Nordeste;-37.945477;-11.940767
2907103;290710;Carinhanha;BA;29;Bahia;Não;2;Nordeste;-43.761777;-14.302007
2907202;290720;Casa Nova;BA;29;Bahia;Não;2;Nordeste;-40.975797;-9.178595
2907301;290730;Castro Alves;BA;29;Bahia;Não;2;Nordeste;-39.426519;-12.765833
2907400;290740;Catolândia;BA;29;Bahia;Não;2;Nordeste;-44.859770;-12.316006
2907509;290750;Catu;BA;29;Bahia;Não;2;Nordeste;-38.376294;-12.355187
2907558;290755;Caturama;BA;29;Bahia;Não;2;Nordeste;-42.296407;-13.328201
2907608;290760;Central;BA;29;Bahia;Não;2;Nordeste;-42.112349;-11.137989
2907707;290770;Chorrochó;BA;29;Bahia;Não;2;Nordeste;-39.102370;-8.975478
2907806;290780;Cícero Dantas;BA;29;Bahia;Não;2;Nordeste;-38.383419;-10.592172
2907905;290790;Cipó;BA;29;Bahia;Não;2;Nordeste;-38.517129;-11.101144
2908002;290800;Coaraci;BA;29;Bahia;Não;2;Nordeste;-39.552304;-14.636814
2908101;290810;Cocos;BA;29;Bahia;Não;2;Nordeste;-44.545669;-14.171078
2908200;290820;Conceição da Feira;BA;29;Bahia;Não;2;Nordeste;-38.999781;-12.503992
2908309;290830;Conceição do Almeida;BA;29;Bahia;Não;2;Nordeste;-39.170946;-12.778020
2908408;290840;Conceição do Coité;BA;29;Bahia;Não;2;Nordeste;-39.281684;-11.561826
2908507;290850;Conceição do Jacuípe;BA;29;Bahia;Não;2;Nordeste;-38.763674;-12.322946
2908606;290860;Conde;BA;29;Bahia;Não;2;Nordeste;-37.606978;-11.813432
2908705;290870;Condeúba;BA;29;Bahia;Não;2;Nordeste;-41.970810;-14.890410
2908804;290880;Contendas do Sincorá;BA;29;Bahia;Não;2;Nordeste;-41.046318;-13.755497
2908903;290890;Coração de Maria;BA;29;Bahia;Não;2;Nordeste;-38.750517;-12.247921
2909000;290900;Cordeiros;BA;29;Bahia;Não;2;Nordeste;-41.935734;-15.037234
2909109;290910;Coribe;BA;29;Bahia;Não;2;Nordeste;-44.453036;-13.827842
2909208;290920;Coronel João Sá;BA;29;Bahia;Não;2;Nordeste;-37.932964;-10.279395
2909307;290930;Correntina;BA;29;Bahia;Não;2;Nordeste;-44.641087;-13.341772
2909406;290940;Cotegipe;BA;29;Bahia;Não;2;Nordeste;-44.252476;-12.028597
2909505;290950;Cravolândia;BA;29;Bahia;Não;2;Nordeste;-39.812712;-13.362623
2909604;290960;Crisópolis;BA;29;Bahia;Não;2;Nordeste;-38.151716;-11.517790
2909703;290970;Cristópolis;BA;29;Bahia;Não;2;Nordeste;-44.411842;-12.231451
2909802;290980;Cruz das Almas;BA;29;Bahia;Não;2;Nordeste;-39.100736;-12.663786
2909901;290990;Curaçá;BA;29;Bahia;Não;2;Nordeste;-39.908081;-8.989032
2910008;291000;Dário Meira;BA;29;Bahia;Não;2;Nordeste;-39.902466;-14.435047
2910057;291005;Dias d`Ávila;BA;29;Bahia;Não;2;Nordeste;-38.297994;-12.604368
2910107;291010;Dom Basílio;BA;29;Bahia;Não;2;Nordeste;-41.770878;-13.763327
2910206;291020;Dom Macedo Costa;BA;29;Bahia;Não;2;Nordeste;-39.188094;-12.911489
2910305;291030;Elísio Medrado;BA;29;Bahia;Não;2;Nordeste;-39.520486;-12.943326
2910404;291040;Encruzilhada;BA;29;Bahia;Não;2;Nordeste;-40.909121;-15.534580
2910503;291050;Entre Rios;BA;29;Bahia;Não;2;Nordeste;-38.078777;-11.937261
2910602;291060;Esplanada;BA;29;Bahia;Não;2;Nordeste;-37.944981;-11.799409
2910701;291070;Euclides da Cunha;BA;29;Bahia;Não;2;Nordeste;-39.014249;-10.505818
2910727;291072;Eunápolis;BA;29;Bahia;Não;2;Nordeste;-39.584172;-16.375167
2910750;291075;Fátima;BA;29;Bahia;Não;2;Nordeste;-38.208675;-10.600170
2910776;291077;Feira da Mata;BA;29;Bahia;Não;2;Nordeste;-44.283464;-14.210565
2910800;291080;Feira de Santana;BA;29;Bahia;Não;2;Nordeste;-38.960033;-12.229284
2910859;291085;Filadélfia;BA;29;Bahia;Não;2;Nordeste;-40.137827;-10.738464
2910909;291090;Firmino Alves;BA;29;Bahia;Não;2;Nordeste;-39.921442;-14.984935
2911006;291100;Floresta Azul;BA;29;Bahia;Não;2;Nordeste;-39.656524;-14.862798
2911105;291110;Formosa do Rio Preto;BA;29;Bahia;Não;2;Nordeste;-45.190991;-11.047032
2911204;291120;Gandu;BA;29;Bahia;Não;2;Nordeste;-39.486324;-13.743781
2911253;291125;Gavião;BA;29;Bahia;Não;2;Nordeste;-39.786113;-11.470895
2911303;291130;Gentio do Ouro;BA;29;Bahia;Não;2;Nordeste;-42.504742;-11.427531
2911402;291140;Glória;BA;29;Bahia;Não;2;Nordeste;-38.259273;-9.340173
2911501;291150;Gongogi;BA;29;Bahia;Não;2;Nordeste;-39.467240;-14.323713
2911600;291160;Governador Mangabeira;BA;29;Bahia;Não;2;Nordeste;-39.034024;-12.601554
2911659;291165;Guajeru;BA;29;Bahia;Não;2;Nordeste;-41.937148;-14.546962
2911709;291170;Guanambi;BA;29;Bahia;Não;2;Nordeste;-42.778562;-14.225315
2911808;291180;Guaratinga;BA;29;Bahia;Não;2;Nordeste;-39.781284;-16.581216
2911857;291185;Heliópolis;BA;29;Bahia;Não;2;Nordeste;-38.280233;-10.675299
2911907;291190;Iaçu;BA;29;Bahia;Não;2;Nordeste;-40.213365;-12.769138
2912004;291200;Ibiassucê;BA;29;Bahia;Não;2;Nordeste;-42.255774;-14.276703
2912103;291210;Ibicaraí;BA;29;Bahia;Não;2;Nordeste;-39.591541;-14.865763
2912202;291220;Ibicoara;BA;29;Bahia;Não;2;Nordeste;-41.272066;-13.426327
2912301;291230;Ibicuí;BA;29;Bahia;Não;2;Nordeste;-39.989832;-14.843090
2912400;291240;Ibipeba;BA;29;Bahia;Não;2;Nordeste;-42.011248;-11.637526
2912509;291250;Ibipitanga;BA;29;Bahia;Não;2;Nordeste;-42.491229;-12.879106
2912608;291260;Ibiquera;BA;29;Bahia;Não;2;Nordeste;-40.935421;-12.649929
2912707;291270;Ibirapitanga;BA;29;Bahia;Não;2;Nordeste;-39.374467;-14.165032
2912806;291280;Ibirapuã;BA;29;Bahia;Não;2;Nordeste;-40.106309;-17.684197
2912905;291290;Ibirataia;BA;29;Bahia;Não;2;Nordeste;-39.640919;-14.067269
2913002;291300;Ibitiara;BA;29;Bahia;Não;2;Nordeste;-42.213294;-12.645514
2913101;291310;Ibititá;BA;29;Bahia;Não;2;Nordeste;-41.975152;-11.552771
2913200;291320;Ibotirama;BA;29;Bahia;Não;2;Nordeste;-43.218696;-12.184014
2913309;291330;Ichu;BA;29;Bahia;Não;2;Nordeste;-39.188716;-11.755250
2913408;291340;Igaporã;BA;29;Bahia;Não;2;Nordeste;-42.717880;-13.767976
2913457;291345;Igrapiúna;BA;29;Bahia;Não;2;Nordeste;-39.140081;-13.820402
2913507;291350;Iguaí;BA;29;Bahia;Não;2;Nordeste;-40.097513;-14.757963
2913606;291360;Ilhéus;BA;29;Bahia;Não;2;Nordeste;-39.043184;-14.793320
2913705;291370;Inhambupe;BA;29;Bahia;Não;2;Nordeste;-38.354019;-11.789127
2913804;291380;Ipecaetá;BA;29;Bahia;Não;2;Nordeste;-39.306026;-12.314199
2913903;291390;Ipiaú;BA;29;Bahia;Não;2;Nordeste;-39.735654;-14.137474
2914000;291400;Ipirá;BA;29;Bahia;Não;2;Nordeste;-39.740708;-12.160287
2914109;291410;Ipupiara;BA;29;Bahia;Não;2;Nordeste;-42.610689;-11.828827
2914208;291420;Irajuba;BA;29;Bahia;Não;2;Nordeste;-40.083852;-13.256610
2914307;291430;Iramaia;BA;29;Bahia;Não;2;Nordeste;-40.969582;-13.293651
2914406;291440;Iraquara;BA;29;Bahia;Não;2;Nordeste;-41.617959;-12.243501
2914505;291450;Irará;BA;29;Bahia;Não;2;Nordeste;-38.771651;-12.033704
2914604;291460;Irecê;BA;29;Bahia;Não;2;Nordeste;-41.858860;-11.303380
2914653;291465;Itabela;BA;29;Bahia;Não;2;Nordeste;-39.553238;-16.575836
2914703;291470;Itaberaba;BA;29;Bahia;Não;2;Nordeste;-40.306995;-12.532254
2914802;291480;Itabuna;BA;29;Bahia;Não;2;Nordeste;-39.273109;-14.789040
2914901;291490;Itacaré;BA;29;Bahia;Não;2;Nordeste;-38.994842;-14.278249
2915007;291500;Itaeté;BA;29;Bahia;Não;2;Nordeste;-40.963419;-12.982034
2915106;291510;Itagi;BA;29;Bahia;Não;2;Nordeste;-40.013625;-14.161794
2915205;291520;Itagibá;BA;29;Bahia;Não;2;Nordeste;-39.848516;-14.286514
2915304;291530;Itagimirim;BA;29;Bahia;Não;2;Nordeste;-39.615192;-16.088143
2915353;291535;Itaguaçu da Bahia;BA;29;Bahia;Não;2;Nordeste;-42.401157;-11.008722
2915403;291540;Itaju do Colônia;BA;29;Bahia;Não;2;Nordeste;-39.724725;-15.140194
2915502;291550;Itajuípe;BA;29;Bahia;Não;2;Nordeste;-39.381788;-14.678019
2915601;291560;Itamaraju;BA;29;Bahia;Não;2;Nordeste;-39.533040;-17.042338
2915700;291570;Itamari;BA;29;Bahia;Não;2;Nordeste;-39.676348;-13.774837
2915809;291580;Itambé;BA;29;Bahia;Não;2;Nordeste;-40.624042;-15.248019
2915908;291590;Itanagra;BA;29;Bahia;Não;2;Nordeste;-38.038181;-12.268163
2916005;291600;Itanhém;BA;29;Bahia;Não;2;Nordeste;-40.327049;-17.166333
2916104;291610;Itaparica;BA;29;Bahia;Não;2;Nordeste;-38.684030;-12.881489
2916203;291620;Itapé;BA;29;Bahia;Não;2;Nordeste;-39.429963;-14.894808
2916302;291630;Itapebi;BA;29;Bahia;Não;2;Nordeste;-39.528541;-15.972167
2916401;291640;Itapetinga;BA;29;Bahia;Não;2;Nordeste;-40.247381;-15.246167
2916500;291650;Itapicuru;BA;29;Bahia;Não;2;Nordeste;-38.218612;-11.310953
2916609;291660;Itapitanga;BA;29;Bahia;Não;2;Nordeste;-39.566362;-14.421195
2916708;291670;Itaquara;BA;29;Bahia;Não;2;Nordeste;-39.938244;-13.446409
2916807;291680;Itarantim;BA;29;Bahia;Não;2;Nordeste;-40.061545;-15.657830
2916856;291685;Itatim;BA;29;Bahia;Não;2;Nordeste;-39.703775;-12.709247
2916906;291690;Itiruçu;BA;29;Bahia;Não;2;Nordeste;-40.146172;-13.532399
2917003;291700;Itiúba;BA;29;Bahia;Não;2;Nordeste;-39.853277;-10.691901
2917102;291710;Itororó;BA;29;Bahia;Não;2;Nordeste;-40.071703;-15.119037
2917201;291720;Ituaçu;BA;29;Bahia;Não;2;Nordeste;-41.310982;-13.807407
2917300;291730;Ituberá;BA;29;Bahia;Não;2;Nordeste;-39.149042;-13.736157
2917334;291733;Iuiú;BA;29;Bahia;Não;2;Nordeste;-43.556403;-14.412146
2917359;291735;Jaborandi;BA;29;Bahia;Não;2;Nordeste;-44.465970;-13.625934
2917409;291740;Jacaraci;BA;29;Bahia;Não;2;Nordeste;-42.430609;-14.849191
2917508;291750;Jacobina;BA;29;Bahia;Não;2;Nordeste;-40.513018;-11.185062
2917607;291760;Jaguaquara;BA;29;Bahia;Não;2;Nordeste;-39.970255;-13.530699
2917706;291770;Jaguarari;BA;29;Bahia;Não;2;Nordeste;-40.193611;-10.262854
2917805;291780;Jaguaripe;BA;29;Bahia;Não;2;Nordeste;-38.891419;-13.115064
2917904;291790;Jandaíra;BA;29;Bahia;Não;2;Nordeste;-37.786868;-11.565748
2918001;291800;Jequié;BA;29;Bahia;Não;2;Nordeste;-40.088607;-13.855664
2918100;291810;Jeremoabo;BA;29;Bahia;Não;2;Nordeste;-38.351819;-10.062242
2918209;291820;Jiquiriçá;BA;29;Bahia;Não;2;Nordeste;-39.576502;-13.252306
2918308;291830;Jitaúna;BA;29;Bahia;Não;2;Nordeste;-39.889632;-14.017429
2918357;291835;João Dourado;BA;29;Bahia;Não;2;Nordeste;-41.659989;-11.346405
2918407;291840;Juazeiro;BA;29;Bahia;Não;2;Nordeste;-40.503552;-9.410717
2918456;291845;Jucuruçu;BA;29;Bahia;Não;2;Nordeste;-40.158813;-16.844516
2918506;291850;Jussara;BA;29;Bahia;Não;2;Nordeste;-41.979732;-11.054555
2918555;291855;Jussari;BA;29;Bahia;Não;2;Nordeste;-39.494940;-15.190456
2918605;291860;Jussiape;BA;29;Bahia;Não;2;Nordeste;-41.590142;-13.512950
2918704;291870;Lafaiete Coutinho;BA;29;Bahia;Não;2;Nordeste;-40.210606;-13.652999
2918753;291875;Lagoa Real;BA;29;Bahia;Não;2;Nordeste;-42.145712;-14.030029
2918803;291880;Laje;BA;29;Bahia;Não;2;Nordeste;-39.427552;-13.179649
2918902;291890;Lajedão;BA;29;Bahia;Não;2;Nordeste;-40.345847;-17.612131
2919009;291900;Lajedinho;BA;29;Bahia;Não;2;Nordeste;-40.903710;-12.360374
2919058;291905;Lajedo do Tabocal;BA;29;Bahia;Não;2;Nordeste;-40.225230;-13.472520
2919108;291910;Lamarão;BA;29;Bahia;Não;2;Nordeste;-38.892980;-11.791578
2919157;291915;Lapão;BA;29;Bahia;Não;2;Nordeste;-41.831909;-11.380139
2919207;291920;Lauro de Freitas;BA;29;Bahia;Não;2;Nordeste;-38.323462;-12.896718
2919306;291930;Lençóis;BA;29;Bahia;Não;2;Nordeste;-41.394031;-12.564063
2919405;291940;Licínio de Almeida;BA;29;Bahia;Não;2;Nordeste;-42.502684;-14.675866
2919504;291950;Livramento de Nossa Senhora;BA;29;Bahia;Não;2;Nordeste;-41.840387;-13.649501
2919553;291955;Luís Eduardo Magalhães;BA;29;Bahia;Não;2;Nordeste;-45.800464;-12.078372
2919603;291960;Macajuba;BA;29;Bahia;Não;2;Nordeste;-40.365180;-12.141393
2919702;291970;Macarani;BA;29;Bahia;Não;2;Nordeste;-40.422044;-15.567316
2919801;291980;Macaúbas;BA;29;Bahia;Não;2;Nordeste;-42.694666;-13.023672
2919900;291990;Macururé;BA;29;Bahia;Não;2;Nordeste;-39.059515;-9.174706
2919926;291992;Madre de Deus;BA;29;Bahia;Não;2;Nordeste;-38.602769;-12.740313
2919959;291995;Maetinga;BA;29;Bahia;Não;2;Nordeste;-41.483657;-14.661266
2920007;292000;Maiquinique;BA;29;Bahia;Não;2;Nordeste;-40.260515;-15.619772
2920106;292010;Mairi;BA;29;Bahia;Não;2;Nordeste;-40.149783;-11.711111
2920205;292020;Malhada;BA;29;Bahia;Não;2;Nordeste;-43.771620;-14.340383
2920304;292030;Malhada de Pedras;BA;29;Bahia;Não;2;Nordeste;-41.878698;-14.377945
2920403;292040;Manoel Vitorino;BA;29;Bahia;Não;2;Nordeste;-40.242016;-14.145932
2920452;292045;Mansidão;BA;29;Bahia;Não;2;Nordeste;-44.036485;-10.715829
2920502;292050;Maracás;BA;29;Bahia;Não;2;Nordeste;-40.431288;-13.437674
2920601;292060;Maragogipe;BA;29;Bahia;Não;2;Nordeste;-38.918881;-12.775120
2920700;292070;Maraú;BA;29;Bahia;Não;2;Nordeste;-39.024952;-14.105531
2920809;292080;Marcionílio Souza;BA;29;Bahia;Não;2;Nordeste;-40.534530;-13.003510
2920908;292090;Mascote;BA;29;Bahia;Não;2;Nordeste;-39.302400;-15.565988
2921005;292100;Mata de São João;BA;29;Bahia;Não;2;Nordeste;-38.297299;-12.529971
2921054;292105;Matina;BA;29;Bahia;Não;2;Nordeste;-42.842932;-13.912636
2921104;292110;Medeiros Neto;BA;29;Bahia;Não;2;Nordeste;-40.220174;-17.370409
2921203;292120;Miguel Calmon;BA;29;Bahia;Não;2;Nordeste;-40.596070;-11.428344
2921302;292130;Milagres;BA;29;Bahia;Não;2;Nordeste;-39.859127;-12.870575
2921401;292140;Mirangaba;BA;29;Bahia;Não;2;Nordeste;-40.574793;-10.956117
2921450;292145;Mirante;BA;29;Bahia;Não;2;Nordeste;-40.773567;-14.239818
2921500;292150;Monte Santo;BA;29;Bahia;Não;2;Nordeste;-39.332706;-10.440158
2921609;292160;Morpará;BA;29;Bahia;Não;2;Nordeste;-43.277913;-11.558043
2921708;292170;Morro do Chapéu;BA;29;Bahia;Não;2;Nordeste;-41.159097;-11.550126
2921807;292180;Mortugaba;BA;29;Bahia;Não;2;Nordeste;-42.380449;-15.016407
2921906;292190;Mucugê;BA;29;Bahia;Não;2;Nordeste;-41.373213;-13.003894
2922003;292200;Mucuri;BA;29;Bahia;Não;2;Nordeste;-39.547546;-18.088540
2922052;292205;Mulungu do Morro;BA;29;Bahia;Não;2;Nordeste;-41.643800;-11.967220
2922102;292210;Mundo Novo;BA;29;Bahia;Não;2;Nordeste;-40.471498;-11.864723
2922201;292220;Muniz Ferreira;BA;29;Bahia;Não;2;Nordeste;-39.112982;-12.997304
2922250;292225;Muquém de São Francisco;BA;29;Bahia;Não;2;Nordeste;-43.551860;-12.068261
2922300;292230;Muritiba;BA;29;Bahia;Não;2;Nordeste;-38.988689;-12.623372
2922409;292240;Mutuípe;BA;29;Bahia;Não;2;Nordeste;-39.504164;-13.229373
2922508;292250;Nazaré;BA;29;Bahia;Não;2;Nordeste;-39.010623;-13.035148
2922607;292260;Nilo Peçanha;BA;29;Bahia;Não;2;Nordeste;-39.112986;-13.604494
2922656;292265;Nordestina;BA;29;Bahia;Não;2;Nordeste;-39.429131;-10.832054
2922706;292270;Nova Canaã;BA;29;Bahia;Não;2;Nordeste;-40.145175;-14.793598
2922730;292273;Nova Fátima;BA;29;Bahia;Não;2;Nordeste;-39.632217;-11.608398
2922755;292275;Nova Ibiá;BA;29;Bahia;Não;2;Nordeste;-39.625686;-13.809907
2922805;292280;Nova Itarana;BA;29;Bahia;Não;2;Nordeste;-40.069250;-13.033050
2922854;292285;Nova Redenção;BA;29;Bahia;Não;2;Nordeste;-41.068860;-12.818868
2922904;292290;Nova Soure;BA;29;Bahia;Não;2;Nordeste;-38.484614;-11.238008
2923001;292300;Nova Viçosa;BA;29;Bahia;Não;2;Nordeste;-39.372012;-17.893392
2923035;292303;Novo Horizonte;BA;29;Bahia;Não;2;Nordeste;-42.167788;-12.801997
2923050;292305;Novo Triunfo;BA;29;Bahia;Não;2;Nordeste;-38.415581;-10.342018
2923100;292310;Olindina;BA;29;Bahia;Não;2;Nordeste;-38.331080;-11.358306
2923209;292320;Oliveira dos Brejinhos;BA;29;Bahia;Não;2;Nordeste;-42.897020;-12.320589
2923308;292330;Ouriçangas;BA;29;Bahia;Não;2;Nordeste;-38.628417;-12.006852
2923357;292335;Ourolândia;BA;29;Bahia;Não;2;Nordeste;-41.081812;-10.964618
2923407;292340;Palmas de Monte Alto;BA;29;Bahia;Não;2;Nordeste;-43.170512;-14.257351
2923506;292350;Palmeiras;BA;29;Bahia;Não;2;Nordeste;-41.577337;-12.510071
2923605;292360;Paramirim;BA;29;Bahia;Não;2;Nordeste;-42.240649;-13.442427
2923704;292370;Paratinga;BA;29;Bahia;Não;2;Nordeste;-43.182025;-12.690697
2923803;292380;Paripiranga;BA;29;Bahia;Não;2;Nordeste;-37.870448;-10.675992
2923902;292390;Pau Brasil;BA;29;Bahia;Não;2;Nordeste;-39.648782;-15.463619
2924009;292400;Paulo Afonso;BA;29;Bahia;Não;2;Nordeste;-38.218329;-9.403332
2924058;292405;Pé de Serra;BA;29;Bahia;Não;2;Nordeste;-39.609425;-11.831179
2924108;292410;Pedrão;BA;29;Bahia;Não;2;Nordeste;-38.649001;-12.143587
2924207;292420;Pedro Alexandre;BA;29;Bahia;Não;2;Nordeste;-37.899262;-10.010072
2924306;292430;Piatã;BA;29;Bahia;Não;2;Nordeste;-41.770623;-13.164457
2924405;292440;Pilão Arcado;BA;29;Bahia;Não;2;Nordeste;-42.484757;-9.997771
2924504;292450;Pindaí;BA;29;Bahia;Não;2;Nordeste;-42.687033;-14.489988
2924603;292460;Pindobaçu;BA;29;Bahia;Não;2;Nordeste;-40.357159;-10.734207
2924652;292465;Pintadas;BA;29;Bahia;Não;2;Nordeste;-39.908239;-11.808037
2924678;292467;Piraí do Norte;BA;29;Bahia;Não;2;Nordeste;-39.374522;-13.761225
2924702;292470;Piripá;BA;29;Bahia;Não;2;Nordeste;-41.724866;-14.946871
2924801;292480;Piritiba;BA;29;Bahia;Não;2;Nordeste;-40.551328;-11.737234
2924900;292490;Planaltino;BA;29;Bahia;Não;2;Nordeste;-40.368397;-13.256609
2925006;292500;Planalto;BA;29;Bahia;Não;2;Nordeste;-40.484640;-14.670170
2925105;292510;Poções;BA;29;Bahia;Não;2;Nordeste;-40.365127;-14.522325
2925204;292520;Pojuca;BA;29;Bahia;Não;2;Nordeste;-38.327167;-12.429263
2925253;292525;Ponto Novo;BA;29;Bahia;Não;2;Nordeste;-40.135393;-10.867148
2925303;292530;Porto Seguro;BA;29;Bahia;Não;2;Nordeste;-39.062114;-16.449056
2925402;292540;Potiraguá;BA;29;Bahia;Não;2;Nordeste;-39.875660;-15.592456
2925501;292550;Prado;BA;29;Bahia;Não;2;Nordeste;-39.229238;-17.329564
2925600;292560;Presidente Dutra;BA;29;Bahia;Não;2;Nordeste;-41.990931;-11.296504
2925709;292570;Presidente Jânio Quadros;BA;29;Bahia;Não;2;Nordeste;-41.682443;-14.685395
2925758;292575;Presidente Tancredo Neves;BA;29;Bahia;Não;2;Nordeste;-39.424060;-13.470842
2925808;292580;Queimadas;BA;29;Bahia;Não;2;Nordeste;-39.626407;-10.976391
2925907;292590;Quijingue;BA;29;Bahia;Não;2;Nordeste;-39.206609;-10.751672
2925931;292593;Quixabeira;BA;29;Bahia;Não;2;Nordeste;-40.121497;-11.408685
2925956;292595;Rafael Jambeiro;BA;29;Bahia;Não;2;Nordeste;-39.500636;-12.407417
2926004;292600;Remanso;BA;29;Bahia;Não;2;Nordeste;-42.079668;-9.623907
2926103;292610;Retirolândia;BA;29;Bahia;Não;2;Nordeste;-39.424178;-11.489667
2926202;292620;Riachão das Neves;BA;29;Bahia;Não;2;Nordeste;-44.916470;-11.746248
2926301;292630;Riachão do Jacuípe;BA;29;Bahia;Não;2;Nordeste;-39.383035;-11.805979
2926400;292640;Riacho de Santana;BA;29;Bahia;Não;2;Nordeste;-42.938347;-13.606588
2926509;292650;Ribeira do Amparo;BA;29;Bahia;Não;2;Nordeste;-38.430554;-11.039158
2926608;292660;Ribeira do Pombal;BA;29;Bahia;Não;2;Nordeste;-38.536099;-10.836278
2926657;292665;Ribeirão do Largo;BA;29;Bahia;Não;2;Nordeste;-40.743860;-15.464060
2926707;292670;Rio de Contas;BA;29;Bahia;Não;2;Nordeste;-41.818791;-13.588608
2926806;292680;Rio do Antônio;BA;29;Bahia;Não;2;Nordeste;-42.075055;-14.408510
2926905;292690;Rio do Pires;BA;29;Bahia;Não;2;Nordeste;-42.287878;-13.118663
2927002;292700;Rio Real;BA;29;Bahia;Não;2;Nordeste;-37.933578;-11.484935
2927101;292710;Rodelas;BA;29;Bahia;Não;2;Nordeste;-38.772309;-8.844997
2927200;292720;Ruy Barbosa;BA;29;Bahia;Não;2;Nordeste;-40.500371;-12.289317
2927309;292730;Salinas da Margarida;BA;29;Bahia;Não;2;Nordeste;-38.757944;-12.877997
2927408;292740;Salvador;BA;29;Bahia;Sim;2;Nordeste;-38.488061;-13.014772
2927507;292750;Santa Bárbara;BA;29;Bahia;Não;2;Nordeste;-38.966139;-11.956903
2927606;292760;Santa Brígida;BA;29;Bahia;Não;2;Nordeste;-38.127818;-9.731891
2927705;292770;Santa Cruz Cabrália;BA;29;Bahia;Não;2;Nordeste;-39.013183;-16.338097
2927804;292780;Santa Cruz da Vitória;BA;29;Bahia;Não;2;Nordeste;-39.811836;-14.960078
2927903;292790;Santa Inês;BA;29;Bahia;Não;2;Nordeste;-39.827605;-13.298687
2928000;292800;Santaluz;BA;29;Bahia;Não;2;Nordeste;-39.377378;-11.253360
2928059;292805;Santa Luzia;BA;29;Bahia;Não;2;Nordeste;-39.332493;-15.432788
2928109;292810;Santa Maria da Vitória;BA;29;Bahia;Não;2;Nordeste;-44.198309;-13.393545
2928208;292820;Santana;BA;29;Bahia;Não;2;Nordeste;-44.053258;-12.980751
2928307;292830;Santanópolis;BA;29;Bahia;Não;2;Nordeste;-38.867162;-12.028407
2928406;292840;Santa Rita de Cássia;BA;29;Bahia;Não;2;Nordeste;-44.519050;-11.008045
2928505;292850;Santa Teresinha;BA;29;Bahia;Não;2;Nordeste;-39.521140;-12.772852
2928604;292860;Santo Amaro;BA;29;Bahia;Não;2;Nordeste;-38.709031;-12.549140
2928703;292870;Santo Antônio de Jesus;BA;29;Bahia;Não;2;Nordeste;-39.261131;-12.968008
2928802;292880;Santo Estêvão;BA;29;Bahia;Não;2;Nordeste;-39.253190;-12.428893
2928901;292890;São Desidério;BA;29;Bahia;Não;2;Nordeste;-44.974096;-12.360895
2928950;292895;São Domingos;BA;29;Bahia;Não;2;Nordeste;-39.526265;-11.463466
2929008;292900;São Félix;BA;29;Bahia;Não;2;Nordeste;-38.968719;-12.605713
2929057;292905;São Félix do Coribe;BA;29;Bahia;Não;2;Nordeste;-44.196873;-13.404218
2929107;292910;São Felipe;BA;29;Bahia;Não;2;Nordeste;-39.084015;-12.845078
2929206;292920;São Francisco do Conde;BA;29;Bahia;Não;2;Nordeste;-38.675798;-12.629983
2929255;292925;São Gabriel;BA;29;Bahia;Não;2;Nordeste;-41.874269;-11.226707
2929305;292930;São Gonçalo dos Campos;BA;29;Bahia;Não;2;Nordeste;-38.949772;-12.430310
2929354;292935;São José da Vitória;BA;29;Bahia;Não;2;Nordeste;-39.338921;-15.078178
2929370;292937;São José do Jacuípe;BA;29;Bahia;Não;2;Nordeste;-40.023656;-11.505326
2929404;292940;São Miguel das Matas;BA;29;Bahia;Não;2;Nordeste;-39.455780;-13.051733
2929503;292950;São Sebastião do Passé;BA;29;Bahia;Não;2;Nordeste;-38.495310;-12.512725
2929602;292960;Sapeaçu;BA;29;Bahia;Não;2;Nordeste;-39.194808;-12.735161
2929701;292970;Sátiro Dias;BA;29;Bahia;Não;2;Nordeste;-38.591354;-11.600809
2929750;292975;Saubara;BA;29;Bahia;Não;2;Nordeste;-38.770607;-12.736904
2929800;292980;Saúde;BA;29;Bahia;Não;2;Nordeste;-40.418551;-10.941105
2929909;292990;Seabra;BA;29;Bahia;Não;2;Nordeste;-41.768201;-12.418763
2930006;293000;Sebastião Laranjeiras;BA;29;Bahia;Não;2;Nordeste;-42.944113;-14.574822
2930105;293010;Senhor do Bonfim;BA;29;Bahia;Não;2;Nordeste;-40.189985;-10.456771
2930154;293015;Serra do Ramalho;BA;29;Bahia;Não;2;Nordeste;-43.580731;-13.564466
2930204;293020;Sento Sé;BA;29;Bahia;Não;2;Nordeste;-41.890997;-9.740380
2930303;293030;Serra Dourada;BA;29;Bahia;Não;2;Nordeste;-43.952337;-12.762595
2930402;293040;Serra Preta;BA;29;Bahia;Não;2;Nordeste;-39.332504;-12.159727
2930501;293050;Serrinha;BA;29;Bahia;Não;2;Nordeste;-39.008133;-11.659532
2930600;293060;Serrolândia;BA;29;Bahia;Não;2;Nordeste;-40.299905;-11.416032
2930709;293070;Simões Filho;BA;29;Bahia;Não;2;Nordeste;-38.411519;-12.783941
2930758;293075;Sítio do Mato;BA;29;Bahia;Não;2;Nordeste;-43.466441;-13.085793
2930766;293076;Sítio do Quinto;BA;29;Bahia;Não;2;Nordeste;-38.200371;-10.364159
2930774;293077;Sobradinho;BA;29;Bahia;Não;2;Nordeste;-40.791595;-9.470807
2930808;293080;Souto Soares;BA;29;Bahia;Não;2;Nordeste;-41.644248;-12.092596
2930907;293090;Tabocas do Brejo Velho;BA;29;Bahia;Não;2;Nordeste;-44.011189;-12.707301
2931004;293100;Tanhaçu;BA;29;Bahia;Não;2;Nordeste;-41.254334;-14.025508
2931053;293105;Tanque Novo;BA;29;Bahia;Não;2;Nordeste;-42.490613;-13.546560
2931103;293110;Tanquinho;BA;29;Bahia;Não;2;Nordeste;-39.100547;-11.971693
2931202;293120;Taperoá;BA;29;Bahia;Não;2;Nordeste;-39.100622;-13.530993
2931301;293130;Tapiramutá;BA;29;Bahia;Não;2;Nordeste;-40.788700;-11.852341
2931350;293135;Teixeira de Freitas;BA;29;Bahia;Não;2;Nordeste;-39.744518;-17.537750
2931400;293140;Teodoro Sampaio;BA;29;Bahia;Não;2;Nordeste;-38.641928;-12.301407
2931509;293150;Teofilândia;BA;29;Bahia;Não;2;Nordeste;-39.005813;-11.482925
2931608;293160;Teolândia;BA;29;Bahia;Não;2;Nordeste;-39.489386;-13.601106
2931707;293170;Terra Nova;BA;29;Bahia;Não;2;Nordeste;-38.623102;-12.403092
2931806;293180;Tremedal;BA;29;Bahia;Não;2;Nordeste;-41.409576;-14.972472
2931905;293190;Tucano;BA;29;Bahia;Não;2;Nordeste;-38.785948;-10.964300
2932002;293200;Uauá;BA;29;Bahia;Não;2;Nordeste;-39.488064;-9.832654
2932101;293210;Ubaíra;BA;29;Bahia;Não;2;Nordeste;-39.662033;-13.268089
2932200;293220;Ubaitaba;BA;29;Bahia;Não;2;Nordeste;-39.322547;-14.310436
2932309;293230;Ubatã;BA;29;Bahia;Não;2;Nordeste;-39.522668;-14.211467
2932408;293240;Uibaí;BA;29;Bahia;Não;2;Nordeste;-42.133796;-11.338115
2932457;293245;Umburanas;BA;29;Bahia;Não;2;Nordeste;-41.332914;-10.729271
2932507;293250;Una;BA;29;Bahia;Não;2;Nordeste;-39.074713;-15.294208
2932606;293260;Urandi;BA;29;Bahia;Não;2;Nordeste;-42.658999;-14.763242
2932705;293270;Uruçuca;BA;29;Bahia;Não;2;Nordeste;-39.283802;-14.592035
2932804;293280;Utinga;BA;29;Bahia;Não;2;Nordeste;-41.095829;-12.083318
2932903;293290;Valença;BA;29;Bahia;Não;2;Nordeste;-39.072350;-13.370342
2933000;293300;Valente;BA;29;Bahia;Não;2;Nordeste;-39.464246;-11.412490
2933059;293305;Várzea da Roça;BA;29;Bahia;Não;2;Nordeste;-40.140637;-11.598986
2933109;293310;Várzea do Poço;BA;29;Bahia;Não;2;Nordeste;-40.318918;-11.523980
2933158;293315;Várzea Nova;BA;29;Bahia;Não;2;Nordeste;-40.945846;-11.257231
2933174;293317;Varzedo;BA;29;Bahia;Não;2;Nordeste;-39.393476;-12.975313
2933208;293320;Vera Cruz;BA;29;Bahia;Não;2;Nordeste;-38.619160;-12.935733
2933257;293325;Vereda;BA;29;Bahia;Não;2;Nordeste;-40.084485;-17.223934
2933307;293330;Vitória da Conquista;BA;29;Bahia;Não;2;Nordeste;-40.839810;-14.848005
2933406;293340;Wagner;BA;29;Bahia;Não;2;Nordeste;-41.169627;-12.284251
2933455;293345;Wanderley;BA;29;Bahia;Não;2;Nordeste;-43.888930;-12.120150
2933505;293350;Wenceslau Guimarães;BA;29;Bahia;Não;2;Nordeste;-39.479671;-13.688588
2933604;293360;Xique-Xique;BA;29;Bahia;Não;2;Nordeste;-42.725508;-10.824974
2300101;230010;Abaiara;CE;23;Ceará;Não;2;Nordeste;-39.047547;-7.356977
2300150;230015;Acarape;CE;23;Ceará;Não;2;Nordeste;-38.705624;-4.223138
2300200;230020;Acaraú;CE;23;Ceará;Não;2;Nordeste;-40.118241;-2.885311
2300309;230030;Acopiara;CE;23;Ceará;Não;2;Nordeste;-39.455705;-6.092762
2300408;230040;Aiuaba;CE;23;Ceará;Não;2;Nordeste;-40.123160;-6.563298
2300507;230050;Alcântaras;CE;23;Ceará;Não;2;Nordeste;-40.544638;-3.586984
2300606;230060;Altaneira;CE;23;Ceará;Não;2;Nordeste;-39.745821;-6.997498
2300705;230070;Alto Santo;CE;23;Ceará;Não;2;Nordeste;-38.272778;-5.522082
2300754;230075;Amontada;CE;23;Ceará;Não;2;Nordeste;-39.828823;-3.364878
2300804;230080;Antonina do Norte;CE;23;Ceará;Não;2;Nordeste;-39.982387;-6.779688
2300903;230090;Apuiarés;CE;23;Ceará;Não;2;Nordeste;-39.430423;-3.948019
2301000;230100;Aquiraz;CE;23;Ceará;Não;2;Nordeste;-38.389803;-3.906195
2301109;230110;Aracati;CE;23;Ceará;Não;2;Nordeste;-37.772753;-4.567066
2301208;230120;Aracoiaba;CE;23;Ceará;Não;2;Nordeste;-38.809441;-4.370394
2301257;230125;Ararendá;CE;23;Ceará;Não;2;Nordeste;-40.831097;-4.751938
2301307;230130;Araripe;CE;23;Ceará;Não;2;Nordeste;-40.137446;-7.206184
2301406;230140;Aratuba;CE;23;Ceará;Não;2;Nordeste;-39.047555;-4.416931
2301505;230150;Arneiroz;CE;23;Ceará;Não;2;Nordeste;-40.161444;-6.319426
2301604;230160;Assaré;CE;23;Ceará;Não;2;Nordeste;-39.871275;-6.872607
2301703;230170;Aurora;CE;23;Ceará;Não;2;Nordeste;-38.976991;-6.940392
2301802;230180;Baixio;CE;23;Ceará;Não;2;Nordeste;-38.720126;-6.727162
2301851;230185;Banabuiú;CE;23;Ceará;Não;2;Nordeste;-38.925785;-5.315047
2301901;230190;Barbalha;CE;23;Ceará;Não;2;Nordeste;-39.302316;-7.307172
2301950;230195;Barreira;CE;23;Ceará;Não;2;Nordeste;-38.638502;-4.288762
2302008;230200;Barro;CE;23;Ceará;Não;2;Nordeste;-38.779881;-7.168209
2302057;230205;Barroquinha;CE;23;Ceará;Não;2;Nordeste;-41.139482;-3.009117
2302107;230210;Baturité;CE;23;Ceará;Não;2;Nordeste;-38.880021;-4.331205
2302206;230220;Beberibe;CE;23;Ceará;Não;2;Nordeste;-38.123273;-4.174763
2302305;230230;Bela Cruz;CE;23;Ceará;Não;2;Nordeste;-40.166843;-3.055107
2302404;230240;Boa Viagem;CE;23;Ceará;Não;2;Nordeste;-39.733282;-5.125744
2302503;230250;Brejo Santo;CE;23;Ceará;Não;2;Nordeste;-38.985514;-7.491638
2302602;230260;Camocim;CE;23;Ceará;Não;2;Nordeste;-40.847528;-2.900967
2302701;230270;Campos Sales;CE;23;Ceará;Não;2;Nordeste;-40.379003;-7.073384
2302800;230280;Canindé;CE;23;Ceará;Não;2;Nordeste;-39.310343;-4.355344
2302909;230290;Capistrano;CE;23;Ceará;Não;2;Nordeste;-38.901829;-4.459897
2303006;230300;Caridade;CE;23;Ceará;Não;2;Nordeste;-39.193033;-4.224960
2303105;230310;Cariré;CE;23;Ceará;Não;2;Nordeste;-40.473845;-3.951612
2303204;230320;Caririaçu;CE;23;Ceará;Não;2;Nordeste;-39.284372;-7.041528
2303303;230330;Cariús;CE;23;Ceará;Não;2;Nordeste;-39.497689;-6.531128
2303402;230340;Carnaubal;CE;23;Ceará;Não;2;Nordeste;-40.935632;-4.163989
2303501;230350;Cascavel;CE;23;Ceará;Não;2;Nordeste;-38.239686;-4.131434
2303600;230360;Catarina;CE;23;Ceará;Não;2;Nordeste;-39.879466;-6.127556
2303659;230365;Catunda;CE;23;Ceará;Não;2;Nordeste;-40.205804;-4.651549
2303709;230370;Caucaia;CE;23;Ceará;Não;2;Nordeste;-38.664018;-3.736487
2303808;230380;Cedro;CE;23;Ceará;Não;2;Nordeste;-39.059743;-6.604961
2303907;230390;Chaval;CE;23;Ceará;Não;2;Nordeste;-41.244596;-3.038901
2303931;230393;Choró;CE;23;Ceará;Não;2;Nordeste;-39.137468;-4.842516
2303956;230395;Chorozinho;CE;23;Ceará;Não;2;Nordeste;-38.501286;-4.302171
2304004;230400;Coreaú;CE;23;Ceará;Não;2;Nordeste;-40.656951;-3.549488
2304103;230410;Crateús;CE;23;Ceará;Não;2;Nordeste;-40.668400;-5.176951
2304202;230420;Crato;CE;23;Ceará;Não;2;Nordeste;-39.408390;-7.231753
2304236;230423;Croatá;CE;23;Ceará;Não;2;Nordeste;-40.909045;-4.414057
2304251;230425;Cruz;CE;23;Ceará;Não;2;Nordeste;-40.171279;-2.916708
2304269;230426;Deputado Irapuan Pinheiro;CE;23;Ceará;Não;2;Nordeste;-39.261542;-5.908962
2304277;230427;Ererê;CE;23;Ceará;Não;2;Nordeste;-38.347259;-6.031333
2304285;230428;Eusébio;CE;23;Ceará;Não;2;Nordeste;-38.445122;-3.886973
2304301;230430;Farias Brito;CE;23;Ceará;Não;2;Nordeste;-39.570835;-6.927110
2304350;230435;Forquilha;CE;23;Ceará;Não;2;Nordeste;-40.258769;-3.798958
2304400;230440;Fortaleza;CE;23;Ceará;Sim;2;Nordeste;-38.589928;-3.723805
2304459;230445;Fortim;CE;23;Ceará;Não;2;Nordeste;-37.798975;-4.449805
2304509;230450;Frecheirinha;CE;23;Ceará;Não;2;Nordeste;-40.821405;-3.760612
2304608;230460;General Sampaio;CE;23;Ceará;Não;2;Nordeste;-39.453530;-4.051041
2304657;230465;Graça;CE;23;Ceará;Não;2;Nordeste;-40.755525;-4.046939
2304707;230470;Granja;CE;23;Ceará;Não;2;Nordeste;-40.829939;-3.118952
2304806;230480;Granjeiro;CE;23;Ceará;Não;2;Nordeste;-39.220309;-6.888884
2304905;230490;Groaíras;CE;23;Ceará;Não;2;Nordeste;-40.382146;-3.911954
2304954;230495;Guaiúba;CE;23;Ceará;Não;2;Nordeste;-38.634435;-4.040244
2305001;230500;Guaraciaba do Norte;CE;23;Ceará;Não;2;Nordeste;-40.752633;-4.162451
2305100;230510;Guaramiranga;CE;23;Ceará;Não;2;Nordeste;-38.940633;-4.262051
2305209;230520;Hidrolândia;CE;23;Ceará;Não;2;Nordeste;-40.401817;-4.407999
2305233;230523;Horizonte;CE;23;Ceará;Não;2;Nordeste;-38.494240;-4.093278
2305266;230526;Ibaretama;CE;23;Ceará;Não;2;Nordeste;-38.821678;-4.818652
2305308;230530;Ibiapina;CE;23;Ceará;Não;2;Nordeste;-40.893929;-3.936131
2305332;230533;Ibicuitinga;CE;23;Ceará;Não;2;Nordeste;-38.640863;-4.969166
2305357;230535;Icapuí;CE;23;Ceará;Não;2;Nordeste;-37.353563;-4.715549
2305407;230540;Icó;CE;23;Ceará;Não;2;Nordeste;-38.863085;-6.403031
2305506;230550;Iguatu;CE;23;Ceará;Não;2;Nordeste;-39.299906;-6.360555
2305605;230560;Independência;CE;23;Ceará;Não;2;Nordeste;-40.309348;-5.398028
2305654;230565;Ipaporanga;CE;23;Ceará;Não;2;Nordeste;-40.757966;-4.900630
2305704;230570;Ipaumirim;CE;23;Ceará;Não;2;Nordeste;-38.715904;-6.788361
2305803;230580;Ipu;CE;23;Ceará;Não;2;Nordeste;-40.718726;-4.313432
2305902;230590;Ipueiras;CE;23;Ceará;Não;2;Nordeste;-40.715697;-4.543785
2306009;230600;Iracema;CE;23;Ceará;Não;2;Nordeste;-38.304662;-5.809843
2306108;230610;Irauçuba;CE;23;Ceará;Não;2;Nordeste;-39.792238;-3.745419
2306207;230620;Itaiçaba;CE;23;Ceará;Não;2;Nordeste;-37.821630;-4.683405
2306256;230625;Itaitinga;CE;23;Ceará;Não;2;Nordeste;-38.526405;-3.970459
2306306;230630;Itapagé;CE;23;Ceará;Não;2;Nordeste;-39.583533;-3.685673
2306405;230640;Itapipoca;CE;23;Ceará;Não;2;Nordeste;-39.583482;-3.499436
2306504;230650;Itapiúna;CE;23;Ceará;Não;2;Nordeste;-38.920674;-4.554740
2306553;230655;Itarema;CE;23;Ceará;Não;2;Nordeste;-39.915678;-2.923348
2306603;230660;Itatira;CE;23;Ceará;Não;2;Nordeste;-39.617904;-4.528923
2306702;230670;Jaguaretama;CE;23;Ceará;Não;2;Nordeste;-38.762526;-5.610890
2306801;230680;Jaguaribara;CE;23;Ceará;Não;2;Nordeste;-38.463097;-5.457502
2306900;230690;Jaguaribe;CE;23;Ceará;Não;2;Nordeste;-38.623005;-5.886459
2307007;230700;Jaguaruana;CE;23;Ceará;Não;2;Nordeste;-37.782391;-4.839555
2307106;230710;Jardim;CE;23;Ceará;Não;2;Nordeste;-39.284164;-7.585536
2307205;230720;Jati;CE;23;Ceará;Não;2;Nordeste;-39.005139;-7.692742
2307254;230725;Jijoca de Jericoacoara;CE;23;Ceará;Não;2;Nordeste;-40.438735;-2.899683
2307304;230730;Juazeiro do Norte;CE;23;Ceará;Não;2;Nordeste;-39.316993;-7.210766
2307403;230740;Jucás;CE;23;Ceará;Não;2;Nordeste;-39.526776;-6.522549
2307502;230750;Lavras da Mangabeira;CE;23;Ceará;Não;2;Nordeste;-38.967275;-6.754748
2307601;230760;Limoeiro do Norte;CE;23;Ceará;Não;2;Nordeste;-38.099095;-5.150239
2307635;230763;Madalena;CE;23;Ceará;Não;2;Nordeste;-39.575789;-4.852434
2307650;230765;Maracanaú;CE;23;Ceará;Não;2;Nordeste;-38.624419;-3.876964
2307700;230770;Maranguape;CE;23;Ceará;Não;2;Nordeste;-38.685851;-3.891869
2307809;230780;Marco;CE;23;Ceará;Não;2;Nordeste;-40.151644;-3.120707
2307908;230790;Martinópole;CE;23;Ceará;Não;2;Nordeste;-40.699355;-3.225012
2308005;230800;Massapê;CE;23;Ceará;Não;2;Nordeste;-40.342135;-3.523871
2308104;230810;Mauriti;CE;23;Ceará;Não;2;Nordeste;-38.772795;-7.387398
2308203;230820;Meruoca;CE;23;Ceará;Não;2;Nordeste;-40.450881;-3.539007
2308302;230830;Milagres;CE;23;Ceará;Não;2;Nordeste;-38.943157;-7.310428
2308351;230835;Milhã;CE;23;Ceará;Não;2;Nordeste;-39.203574;-5.679564
2308377;230837;Miraíma;CE;23;Ceará;Não;2;Nordeste;-39.970065;-3.568600
2308401;230840;Missão Velha;CE;23;Ceará;Não;2;Nordeste;-39.145198;-7.243232
2308500;230850;Mombaça;CE;23;Ceará;Não;2;Nordeste;-39.624405;-5.747005
2308609;230860;Monsenhor Tabosa;CE;23;Ceará;Não;2;Nordeste;-40.070067;-4.783091
2308708;230870;Morada Nova;CE;23;Ceará;Não;2;Nordeste;-38.364907;-5.096952
2308807;230880;Moraújo;CE;23;Ceará;Não;2;Nordeste;-40.683599;-3.466363
2308906;230890;Morrinhos;CE;23;Ceará;Não;2;Nordeste;-40.124179;-3.228831
2309003;230900;Mucambo;CE;23;Ceará;Não;2;Nordeste;-40.745280;-3.906030
2309102;230910;Mulungu;CE;23;Ceará;Não;2;Nordeste;-38.993066;-4.299528
2309201;230920;Nova Olinda;CE;23;Ceará;Não;2;Nordeste;-39.679485;-7.084103
2309300;230930;Nova Russas;CE;23;Ceará;Não;2;Nordeste;-40.565303;-4.706808
2309409;230940;Novo Oriente;CE;23;Ceará;Não;2;Nordeste;-40.774767;-5.533865
2309458;230945;Ocara;CE;23;Ceará;Não;2;Nordeste;-38.598538;-4.485067
2309508;230950;Orós;CE;23;Ceará;Não;2;Nordeste;-38.913596;-6.242799
2309607;230960;Pacajus;CE;23;Ceará;Não;2;Nordeste;-38.467022;-4.170541
2309706;230970;Pacatuba;CE;23;Ceará;Não;2;Nordeste;-38.618299;-3.986120
2309805;230980;Pacoti;CE;23;Ceará;Não;2;Nordeste;-38.925889;-4.224765
2309904;230990;Pacujá;CE;23;Ceará;Não;2;Nordeste;-40.696736;-3.978394
2310001;231000;Palhano;CE;23;Ceará;Não;2;Nordeste;-37.966235;-4.743945
2310100;231010;Palmácia;CE;23;Ceará;Não;2;Nordeste;-38.845029;-4.148982
2310209;231020;Paracuru;CE;23;Ceará;Não;2;Nordeste;-39.029545;-3.411635
2310258;231025;Paraipaba;CE;23;Ceará;Não;2;Nordeste;-39.148116;-3.436197
2310308;231030;Parambu;CE;23;Ceará;Não;2;Nordeste;-40.694207;-6.210336
2310407;231040;Paramoti;CE;23;Ceará;Não;2;Nordeste;-39.239466;-4.097432
2310506;231050;Pedra Branca;CE;23;Ceará;Não;2;Nordeste;-39.713938;-5.454686
2310605;231060;Penaforte;CE;23;Ceará;Não;2;Nordeste;-39.074128;-7.829915
2310704;231070;Pentecoste;CE;23;Ceará;Não;2;Nordeste;-39.267009;-3.796267
2310803;231080;Pereiro;CE;23;Ceará;Não;2;Nordeste;-38.459136;-6.045077
2310852;231085;Pindoretama;CE;23;Ceará;Não;2;Nordeste;-38.300088;-4.027804
2310902;231090;Piquet Carneiro;CE;23;Ceará;Não;2;Nordeste;-39.419406;-5.808570
2310951;231095;Pires Ferreira;CE;23;Ceará;Não;2;Nordeste;-40.646541;-4.242154
2311009;231100;Poranga;CE;23;Ceará;Não;2;Nordeste;-40.926380;-4.743951
2311108;231110;Porteiras;CE;23;Ceará;Não;2;Nordeste;-39.115331;-7.535746
2311207;231120;Potengi;CE;23;Ceará;Não;2;Nordeste;-40.032133;-7.090179
2311231;231123;Potiretama;CE;23;Ceará;Não;2;Nordeste;-38.157918;-5.721668
2311264;231126;Quiterianópolis;CE;23;Ceará;Não;2;Nordeste;-40.704489;-5.847009
2311306;231130;Quixadá;CE;23;Ceará;Não;2;Nordeste;-39.011745;-4.963700
2311355;231135;Quixelô;CE;23;Ceará;Não;2;Nordeste;-39.202294;-6.251212
2311405;231140;Quixeramobim;CE;23;Ceará;Não;2;Nordeste;-39.294354;-5.198405
2311504;231150;Quixeré;CE;23;Ceará;Não;2;Nordeste;-37.990522;-5.068729
2311603;231160;Redenção;CE;23;Ceará;Não;2;Nordeste;-38.729571;-4.222958
2311702;231170;Reriutaba;CE;23;Ceará;Não;2;Nordeste;-40.584612;-4.141568
2311801;231180;Russas;CE;23;Ceará;Não;2;Nordeste;-37.975431;-4.939738
2311900;231190;Saboeiro;CE;23;Ceará;Não;2;Nordeste;-39.904581;-6.536433
2311959;231195;Salitre;CE;23;Ceará;Não;2;Nordeste;-40.464752;-7.284529
2312007;231200;Santana do Acaraú;CE;23;Ceará;Não;2;Nordeste;-40.209463;-3.459775
2312106;231210;Santana do Cariri;CE;23;Ceará;Não;2;Nordeste;-39.737980;-7.180898
2312205;231220;Santa Quitéria;CE;23;Ceará;Não;2;Nordeste;-40.153508;-4.333271
2312304;231230;São Benedito;CE;23;Ceará;Não;2;Nordeste;-40.864490;-4.044727
2312403;231240;São Gonçalo do Amarante;CE;23;Ceará;Não;2;Nordeste;-38.972076;-3.605633
2312502;231250;São João do Jaguaribe;CE;23;Ceará;Não;2;Nordeste;-38.271941;-5.268631
2312601;231260;São Luís do Curu;CE;23;Ceará;Não;2;Nordeste;-39.241606;-3.673009
2312700;231270;Senador Pompeu;CE;23;Ceará;Não;2;Nordeste;-39.375325;-5.589344
2312809;231280;Senador Sá;CE;23;Ceará;Não;2;Nordeste;-40.463792;-3.351790
2312908;231290;Sobral;CE;23;Ceará;Não;2;Nordeste;-40.348668;-3.688038
2313005;231300;Solonópole;CE;23;Ceará;Não;2;Nordeste;-39.008225;-5.726351
2313104;231310;Tabuleiro do Norte;CE;23;Ceará;Não;2;Nordeste;-38.129737;-5.243804
2313203;231320;Tamboril;CE;23;Ceará;Não;2;Nordeste;-40.319069;-4.833929
2313252;231325;Tarrafas;CE;23;Ceará;Não;2;Nordeste;-39.758494;-6.682590
2313302;231330;Tauá;CE;23;Ceará;Não;2;Nordeste;-40.292625;-6.002999
2313351;231335;Tejuçuoca;CE;23;Ceará;Não;2;Nordeste;-39.576826;-3.989712
2313401;231340;Tianguá;CE;23;Ceará;Não;2;Nordeste;-40.991706;-3.722674
2313500;231350;Trairi;CE;23;Ceará;Não;2;Nordeste;-39.272232;-3.264420
2313559;231355;Tururu;CE;23;Ceará;Não;2;Nordeste;-39.434364;-3.595595
2313609;231360;Ubajara;CE;23;Ceará;Não;2;Nordeste;-40.907144;-3.848491
2313708;231370;Umari;CE;23;Ceará;Não;2;Nordeste;-38.701326;-6.647244
2313757;231375;Umirim;CE;23;Ceará;Não;2;Nordeste;-39.342384;-3.675562
2313807;231380;Uruburetama;CE;23;Ceará;Não;2;Nordeste;-39.508178;-3.623017
2313906;231390;Uruoca;CE;23;Ceará;Não;2;Nordeste;-40.561163;-3.313231
2313955;231395;Varjota;CE;23;Ceará;Não;2;Nordeste;-40.478993;-4.182822
2314003;231400;Várzea Alegre;CE;23;Ceará;Não;2;Nordeste;-39.298933;-6.791846
2314102;231410;Viçosa do Ceará;CE;23;Ceará;Não;2;Nordeste;-41.091629;-3.566013
2100055;210005;Açailândia;MA;21;Maranhão;Não;2;Nordeste;-47.506665;-4.951377
2100105;210010;Afonso Cunha;MA;21;Maranhão;Não;2;Nordeste;-43.320869;-4.135015
2100154;210015;Água Doce do Maranhão;MA;21;Maranhão;Não;2;Nordeste;-42.115551;-2.840278
2100204;210020;Alcântara;MA;21;Maranhão;Não;2;Nordeste;-44.417013;-2.403277
2100303;210030;Aldeias Altas;MA;21;Maranhão;Não;2;Nordeste;-43.468735;-4.630779
2100402;210040;Altamira do Maranhão;MA;21;Maranhão;Não;2;Nordeste;-45.464676;-4.162269
2100436;210043;Alto Alegre do Maranhão;MA;21;Maranhão;Não;2;Nordeste;-44.448247;-4.207227
2100477;210047;Alto Alegre do Pindaré;MA;21;Maranhão;Não;2;Nordeste;-45.842080;-3.665170
2100501;210050;Alto Parnaíba;MA;21;Maranhão;Não;2;Nordeste;-45.927344;-9.108366
2100550;210055;Amapá do Maranhão;MA;21;Maranhão;Não;2;Nordeste;-46.009180;-1.680921
2100600;210060;Amarante do Maranhão;MA;21;Maranhão;Não;2;Nordeste;-46.750638;-5.557662
2100709;210070;Anajatuba;MA;21;Maranhão;Não;2;Nordeste;-44.620670;-3.257555
2100808;210080;Anapurus;MA;21;Maranhão;Não;2;Nordeste;-43.105793;-3.667035
2100832;210083;Apicum-Açu;MA;21;Maranhão;Não;2;Nordeste;-45.076652;-1.530592
2100873;210087;Araguanã;MA;21;Maranhão;Não;2;Nordeste;-45.668794;-2.949126
2100907;210090;Araioses;MA;21;Maranhão;Não;2;Nordeste;-41.899139;-2.889256
2100956;210095;Arame;MA;21;Maranhão;Não;2;Nordeste;-46.013636;-4.886082
2101004;210100;Arari;MA;21;Maranhão;Não;2;Nordeste;-44.778835;-3.459171
2101103;210110;Axixá;MA;21;Maranhão;Não;2;Nordeste;-44.054586;-2.837797
2101202;210120;Bacabal;MA;21;Maranhão;Não;2;Nordeste;-44.781556;-4.231525
2101251;210125;Bacabeira;MA;21;Maranhão;Não;2;Nordeste;-44.315423;-2.985825
2101301;210130;Bacuri;MA;21;Maranhão;Não;2;Nordeste;-45.137349;-1.724046
2101350;210135;Bacurituba;MA;21;Maranhão;Não;2;Nordeste;-44.735742;-2.710872
2101400;210140;Balsas;MA;21;Maranhão;Não;2;Nordeste;-46.038993;-7.531170
2101509;210150;Barão de Grajaú;MA;21;Maranhão;Não;2;Nordeste;-43.026453;-6.758955
2101608;210160;Barra do Corda;MA;21;Maranhão;Não;2;Nordeste;-45.239011;-5.508340
2101707;210170;Barreirinhas;MA;21;Maranhão;Não;2;Nordeste;-42.827803;-2.750086
2101731;210173;Belágua;MA;21;Maranhão;Não;2;Nordeste;-43.510062;-3.156772
2101772;210177;Bela Vista do Maranhão;MA;21;Maranhão;Não;2;Nordeste;-45.248246;-3.737733
2101806;210180;Benedito Leite;MA;21;Maranhão;Não;2;Nordeste;-44.559857;-7.218800
2101905;210190;Bequimão;MA;21;Maranhão;Não;2;Nordeste;-44.785730;-2.462063
2101939;210193;Bernardo do Mearim;MA;21;Maranhão;Não;2;Nordeste;-44.764323;-4.630287
2101970;210197;Boa Vista do Gurupi;MA;21;Maranhão;Não;2;Nordeste;-46.298710;-1.793296
2102002;210200;Bom Jardim;MA;21;Maranhão;Não;2;Nordeste;-45.601889;-3.544161
2102036;210203;Bom Jesus das Selvas;MA;21;Maranhão;Não;2;Nordeste;-46.853241;-4.489968
2102077;210207;Bom Lugar;MA;21;Maranhão;Não;2;Nordeste;-45.031108;-4.375510
2102101;210210;Brejo;MA;21;Maranhão;Não;2;Nordeste;-42.750848;-3.679178
2102150;210215;Brejo de Areia;MA;21;Maranhão;Não;2;Nordeste;-45.582095;-4.330630
2102200;210220;Buriti;MA;21;Maranhão;Não;2;Nordeste;-42.925106;-3.945572
2102309;210230;Buriti Bravo;MA;21;Maranhão;Não;2;Nordeste;-43.835622;-5.835288
2102325;210232;Buriticupu;MA;21;Maranhão;Não;2;Nordeste;-46.451495;-4.325948
2102358;210235;Buritirana;MA;21;Maranhão;Não;2;Nordeste;-47.017225;-5.588915
2102374;210237;Cachoeira Grande;MA;21;Maranhão;Não;2;Nordeste;-44.059685;-2.931921
2102408;210240;Cajapió;MA;21;Maranhão;Não;2;Nordeste;-44.673377;-2.882882
2102507;210250;Cajari;MA;21;Maranhão;Não;2;Nordeste;-45.007965;-3.323869
2102556;210255;Campestre do Maranhão;MA;21;Maranhão;Não;2;Nordeste;-47.367633;-6.164717
2102606;210260;Cândido Mendes;MA;21;Maranhão;Não;2;Nordeste;-45.737268;-1.453889
2102705;210270;Cantanhede;MA;21;Maranhão;Não;2;Nordeste;-44.381816;-3.628364
2102754;210275;Capinzal do Norte;MA;21;Maranhão;Não;2;Nordeste;-44.330436;-4.721245
2102804;210280;Carolina;MA;21;Maranhão;Não;2;Nordeste;-47.470092;-7.330783
2102903;210290;Carutapera;MA;21;Maranhão;Não;2;Nordeste;-46.023151;-1.200602
2103000;210300;Caxias;MA;21;Maranhão;Não;2;Nordeste;-43.358539;-4.861675
2103109;210310;Cedral;MA;21;Maranhão;Não;2;Nordeste;-44.530790;-1.997916
2103125;210312;Central do Maranhão;MA;21;Maranhão;Não;2;Nordeste;-44.831844;-2.191314
2103158;210315;Centro do Guilherme;MA;21;Maranhão;Não;2;Nordeste;-46.039960;-2.456985
2103174;210317;Centro Novo do Maranhão;MA;21;Maranhão;Não;2;Nordeste;-46.128409;-2.144292
2103208;210320;Chapadinha;MA;21;Maranhão;Não;2;Nordeste;-43.361121;-3.740025
2103257;210325;Cidelândia;MA;21;Maranhão;Não;2;Nordeste;-47.784233;-5.177421
2103307;210330;Codó;MA;21;Maranhão;Não;2;Nordeste;-43.886080;-4.451338
2103406;210340;Coelho Neto;MA;21;Maranhão;Não;2;Nordeste;-43.014014;-4.254738
2103505;210350;Colinas;MA;21;Maranhão;Não;2;Nordeste;-44.249780;-6.027366
2103554;210355;Conceição do Lago-Açu;MA;21;Maranhão;Não;2;Nordeste;-44.903016;-3.841118
2103604;210360;Coroatá;MA;21;Maranhão;Não;2;Nordeste;-44.125599;-4.128976
2103703;210370;Cururupu;MA;21;Maranhão;Não;2;Nordeste;-44.867762;-1.825521
2103752;210375;Davinópolis;MA;21;Maranhão;Não;2;Nordeste;-47.404996;-5.534456
2103802;210380;Dom Pedro;MA;21;Maranhão;Não;2;Nordeste;-44.440010;-5.038448
2103901;210390;Duque Bacelar;MA;21;Maranhão;Não;2;Nordeste;-42.944180;-4.147819
2104008;210400;Esperantinópolis;MA;21;Maranhão;Não;2;Nordeste;-44.886069;-4.870301
2104057;210405;Estreito;MA;21;Maranhão;Não;2;Nordeste;-47.447883;-6.568085
2104073;210407;Feira Nova do Maranhão;MA;21;Maranhão;Não;2;Nordeste;-46.687355;-6.963136
2104081;210408;Fernando Falcão;MA;21;Maranhão;Não;2;Nordeste;-44.910707;-6.154978
2104099;210409;Formosa da Serra Negra;MA;21;Maranhão;Não;2;Nordeste;-46.186357;-6.435304
2104107;210410;Fortaleza dos Nogueiras;MA;21;Maranhão;Não;2;Nordeste;-46.185558;-6.965926
2104206;210420;Fortuna;MA;21;Maranhão;Não;2;Nordeste;-44.160628;-5.736224
2104305;210430;Godofredo Viana;MA;21;Maranhão;Não;2;Nordeste;-45.771755;-1.409800
2104404;210440;Gonçalves Dias;MA;21;Maranhão;Não;2;Nordeste;-44.305907;-5.143956
2104503;210450;Governador Archer;MA;21;Maranhão;Não;2;Nordeste;-44.275757;-5.025388
2104552;210455;Governador Edison Lobão;MA;21;Maranhão;Não;2;Nordeste;-47.368936;-5.747412
2104602;210460;Governador Eugênio Barros;MA;21;Maranhão;Não;2;Nordeste;-44.246963;-5.322491
2104628;210462;Governador Luiz Rocha;MA;21;Maranhão;Não;2;Nordeste;-44.070887;-5.472865
2104651;210465;Governador Newton Bello;MA;21;Maranhão;Não;2;Nordeste;-45.674502;-3.429705
2104677;210467;Governador Nunes Freire;MA;21;Maranhão;Não;2;Nordeste;-45.881481;-2.134962
2104701;210470;Graça Aranha;MA;21;Maranhão;Não;2;Nordeste;-44.335791;-5.404821
2104800;210480;Grajaú;MA;21;Maranhão;Não;2;Nordeste;-46.142396;-5.818548
2104909;210490;Guimarães;MA;21;Maranhão;Não;2;Nordeste;-44.597746;-2.135077
2105005;210500;Humberto de Campos;MA;21;Maranhão;Não;2;Nordeste;-43.465092;-2.591224
2105104;210510;Icatu;MA;21;Maranhão;Não;2;Nordeste;-44.065848;-2.774828
2105153;210515;Igarapé do Meio;MA;21;Maranhão;Não;2;Nordeste;-45.183328;-3.636709
2105203;210520;Igarapé Grande;MA;21;Maranhão;Não;2;Nordeste;-44.867403;-4.660854
2105302;210530;Imperatriz;MA;21;Maranhão;Não;2;Nordeste;-47.479811;-5.526524
2105351;210535;Itaipava do Grajaú;MA;21;Maranhão;Não;2;Nordeste;-45.792683;-5.144582
2105401;210540;Itapecuru Mirim;MA;21;Maranhão;Não;2;Nordeste;-44.354263;-3.399045
2105427;210542;Itinga do Maranhão;MA;21;Maranhão;Não;2;Nordeste;-47.527910;-4.455004
2105450;210545;Jatobá;MA;21;Maranhão;Não;2;Nordeste;-44.219915;-5.819667
2105476;210547;Jenipapo dos Vieiras;MA;21;Maranhão;Não;2;Nordeste;-45.633379;-5.369425
2105500;210550;João Lisboa;MA;21;Maranhão;Não;2;Nordeste;-47.405036;-5.453663
2105609;210560;Joselândia;MA;21;Maranhão;Não;2;Nordeste;-44.699153;-4.972693
2105658;210565;Junco do Maranhão;MA;21;Maranhão;Não;2;Nordeste;-46.070726;-1.874610
2105708;210570;Lago da Pedra;MA;21;Maranhão;Não;2;Nordeste;-45.125891;-4.564745
2105807;210580;Lago do Junco;MA;21;Maranhão;Não;2;Nordeste;-45.051344;-4.607643
2105906;210590;Lago Verde;MA;21;Maranhão;Não;2;Nordeste;-44.937635;-4.038711
2105922;210592;Lagoa do Mato;MA;21;Maranhão;Não;2;Nordeste;-43.527559;-6.045277
2105948;210594;Lago dos Rodrigues;MA;21;Maranhão;Não;2;Nordeste;-44.976442;-4.612376
2105963;210596;Lagoa Grande do Maranhão;MA;21;Maranhão;Não;2;Nordeste;-45.390614;-4.993124
2105989;210598;Lajeado Novo;MA;21;Maranhão;Não;2;Nordeste;-47.032448;-6.191609
2106003;210600;Lima Campos;MA;21;Maranhão;Não;2;Nordeste;-44.469340;-4.517046
2106102;210610;Loreto;MA;21;Maranhão;Não;2;Nordeste;-45.139242;-7.094454
2106201;210620;Luís Domingues;MA;21;Maranhão;Não;2;Nordeste;-45.895332;-1.325460
2106300;210630;Magalhães de Almeida;MA;21;Maranhão;Não;2;Nordeste;-42.201507;-3.396668
2106326;210632;Maracaçumé;MA;21;Maranhão;Não;2;Nordeste;-45.958639;-2.056165
2106359;210635;Marajá do Sena;MA;21;Maranhão;Não;2;Nordeste;-45.457238;-4.620313
2106375;210637;Maranhãozinho;MA;21;Maranhão;Não;2;Nordeste;-45.855611;-2.235617
2106409;210640;Mata Roma;MA;21;Maranhão;Não;2;Nordeste;-43.120389;-3.619046
2106508;210650;Matinha;MA;21;Maranhão;Não;2;Nordeste;-45.036429;-3.098400
2106607;210660;Matões;MA;21;Maranhão;Não;2;Nordeste;-43.201208;-5.522465
2106631;210663;Matões do Norte;MA;21;Maranhão;Não;2;Nordeste;-44.550245;-3.627519
2106672;210667;Milagres do Maranhão;MA;21;Maranhão;Não;2;Nordeste;-42.610753;-3.582207
2106706;210670;Mirador;MA;21;Maranhão;Não;2;Nordeste;-44.362610;-6.377566
2106755;210675;Miranda do Norte;MA;21;Maranhão;Não;2;Nordeste;-44.584276;-3.562645
2106805;210680;Mirinzal;MA;21;Maranhão;Não;2;Nordeste;-44.785756;-2.064224
2106904;210690;Monção;MA;21;Maranhão;Não;2;Nordeste;-45.247585;-3.493932
2107001;210700;Montes Altos;MA;21;Maranhão;Não;2;Nordeste;-47.070440;-5.828563
2107100;210710;Morros;MA;21;Maranhão;Não;2;Nordeste;-44.044545;-2.861479
2107209;210720;Nina Rodrigues;MA;21;Maranhão;Não;2;Nordeste;-43.904485;-3.462464
2107258;210725;Nova Colinas;MA;21;Maranhão;Não;2;Nordeste;-46.259325;-7.120566
2107308;210730;Nova Iorque;MA;21;Maranhão;Não;2;Nordeste;-44.048627;-6.733203
2107357;210735;Nova Olinda do Maranhão;MA;21;Maranhão;Não;2;Nordeste;-45.704536;-2.799887
2107407;210740;Olho d`Água das Cunhãs;MA;21;Maranhão;Não;2;Nordeste;-45.119580;-4.137276
2107456;210745;Olinda Nova do Maranhão;MA;21;Maranhão;Não;2;Nordeste;-45.003235;-2.997478
2107506;210750;Paço do Lumiar;MA;21;Maranhão;Não;2;Nordeste;-44.098692;-2.528063
2107605;210760;Palmeirândia;MA;21;Maranhão;Não;2;Nordeste;-44.904464;-2.647774
2107704;210770;Paraibano;MA;21;Maranhão;Não;2;Nordeste;-43.985762;-6.431825
2107803;210780;Parnarama;MA;21;Maranhão;Não;2;Nordeste;-43.090401;-5.684467
2107902;210790;Passagem Franca;MA;21;Maranhão;Não;2;Nordeste;-43.781745;-6.173994
2108009;210800;Pastos Bons;MA;21;Maranhão;Não;2;Nordeste;-44.088603;-6.604028
2108058;210805;Paulino Neves;MA;21;Maranhão;Não;2;Nordeste;-42.545424;-2.718206
2108108;210810;Paulo Ramos;MA;21;Maranhão;Não;2;Nordeste;-45.239980;-4.447957
2108207;210820;Pedreiras;MA;21;Maranhão;Não;2;Nordeste;-44.603735;-4.569351
2108256;210825;Pedro do Rosário;MA;21;Maranhão;Não;2;Nordeste;-45.346454;-2.968115
2108306;210830;Penalva;MA;21;Maranhão;Não;2;Nordeste;-45.176462;-3.293233
2108405;210840;Peri Mirim;MA;21;Maranhão;Não;2;Nordeste;-44.850291;-2.573055
2108454;210845;Peritoró;MA;21;Maranhão;Não;2;Nordeste;-44.325854;-4.370225
2108504;210850;Pindaré-Mirim;MA;21;Maranhão;Não;2;Nordeste;-45.346868;-3.605501
2108603;210860;Pinheiro;MA;21;Maranhão;Não;2;Nordeste;-45.083927;-2.522741
2108702;210870;Pio XII;MA;21;Maranhão;Não;2;Nordeste;-45.169960;-3.887588
2108801;210880;Pirapemas;MA;21;Maranhão;Não;2;Nordeste;-44.228281;-3.725329
2108900;210890;Poção de Pedras;MA;21;Maranhão;Não;2;Nordeste;-44.951551;-4.750025
2109007;210900;Porto Franco;MA;21;Maranhão;Não;2;Nordeste;-47.382165;-6.354182
2109056;210905;Porto Rico do Maranhão;MA;21;Maranhão;Não;2;Nordeste;-44.583748;-1.857223
2109106;210910;Presidente Dutra;MA;21;Maranhão;Não;2;Nordeste;-44.492919;-5.282374
2109205;210920;Presidente Juscelino;MA;21;Maranhão;Não;2;Nordeste;-44.076779;-2.928229
2109239;210923;Presidente Médici;MA;21;Maranhão;Não;2;Nordeste;-45.820709;-2.383664
2109270;210927;Presidente Sarney;MA;21;Maranhão;Não;2;Nordeste;-45.371302;-2.595531
2109304;210930;Presidente Vargas;MA;21;Maranhão;Não;2;Nordeste;-44.033402;-3.402012
2109403;210940;Primeira Cruz;MA;21;Maranhão;Não;2;Nordeste;-43.442443;-2.510583
2109452;210945;Raposa;MA;21;Maranhão;Não;2;Nordeste;-44.102516;-2.415075
2109502;210950;Riachão;MA;21;Maranhão;Não;2;Nordeste;-46.623350;-7.364565
2109551;210955;Ribamar Fiquene;MA;21;Maranhão;Não;2;Nordeste;-47.383478;-5.933823
2109601;210960;Rosário;MA;21;Maranhão;Não;2;Nordeste;-44.247519;-2.941543
2109700;210970;Sambaíba;MA;21;Maranhão;Não;2;Nordeste;-45.344203;-7.138351
2109759;210975;Santa Filomena do Maranhão;MA;21;Maranhão;Não;2;Nordeste;-44.563714;-5.499767
2109809;210980;Santa Helena;MA;21;Maranhão;Não;2;Nordeste;-45.305161;-2.234533
2109908;210990;Santa Inês;MA;21;Maranhão;Não;2;Nordeste;-45.378272;-3.658575
2110005;211000;Santa Luzia;MA;21;Maranhão;Não;2;Nordeste;-45.665012;-3.968391
2110039;211003;Santa Luzia do Paruá;MA;21;Maranhão;Não;2;Nordeste;-45.776462;-2.546161
